[{"detail": null, "name": "Jakarta - Pasar Induk Kramat Jati", "address": "Ruko Pasar Induk Buah & Sayur Kramat Jati Uniko D2 No 17-18 , Jl. Raya Bogor , Jakarta Timur"}, {"detail": null, "name": "Jakarta - Pasar Jaya Kramat Jati", "address": "PD Pasar Jaya Kramat Jati Blok A Los 3-4 , Jl. Raya Bogor , Jakarta Timur"}, {"detail": null, "name": "Jakarta - Cibubur Indah", "address": "Cibubur Indah Blok B No 1 , Jl. Raya Lapangan Tembak , Jakarta Timur"}, {"detail": null, "name": "Jakarta - Kranggan Permai", "address": "Ruko Kranggan Permai Blok RT 16 No 10 , Jl. Alternatif Cibubur , Bekasi"}, {"detail": null, "name": "Jakarta - Matraman", "address": "Gedung Bank Cimb Niaga , Jl. Matraman Raya No. 140 , Jakarta Timur"}, {"detail": null, "name": "Jakarta - Jatinegara", "address": "Komplek Bonagabe No. 101 , Jl. Jatinegara Timur No. 101 , Jakarta Timur"}, {"detail": null, "name": "Jakarta - Kampung Melayu", "address": "Ruko Bank Cimb Niaga , Jl. Gapura Pasar No. 16 Pasar Jatinegara , Jakarta Timur"}, {"detail": null, "name": "Jakarta - Pasar Induk Cipinang", "address": "Komplek Pasar Induk Beras Cipinang Blok HA 15 -16 , Jl. Pisangan Lama , Jakarta Timur"}, {"detail": null, "name": "Jakarta - Rawamangun Pratama", "address": "Gedung Pratama , Jl. Pemuda No.296 , Jakarta Timur"}, {"detail": null, "name": "Jakarta - Pulo Gadung", "address": "Gedung Poliklinik PT JIEP , Jl. Rawa Terate Ii , Jakarta Timur"}, {"detail": null, "name": "Jakarta - Rawamangun Arion", "address": "Arion Mall Ruang G 15, Jl. Pemuda Kav. 3-4 , Jakarta Timur"}, {"detail": {"kelurahan": "Cipinang Melayu", "longitude": 106.9079168, "formattedAddr": "Tarum Barat No.2, Cipinang Melayu, Makasar, Kota Jakarta Timur, Daerah Khusus Ibukota Jakarta 13620, Indonesia", "latitude": -6.2471349, "provinsi": "Daerah Khusus Ibukota Jakarta", "kecamatan": "Makasar", "kota": "Kota Jakarta Timur"}, "name": "Jakarta - Kalimalang", "address": "Jl. Tarum Barat Blok Q 2 , Kel.Pondok Kelapa , Kec.Duren Sawit , Jakarta Timur"}, {"detail": {"kelurahan": "Klender", "longitude": 106.9220439, "formattedAddr": "Jl. Taman Buaran Indah 1, Klender, Duren Sawit, Kota Jakarta Timur, Daerah Khusus Ibukota Jakarta 13470, Indonesia", "latitude": -6.2190072, "provinsi": "Daerah Khusus Ibukota Jakarta", "kecamatan": "Duren Sawit", "kota": "Kota Jakarta Timur"}, "name": "Jakarta - Buaran Indah", "address": "Taman Buaran Indah I Kav 59 , Kel.Klender , Kec.Duren Sawit , Jakarta Timur"}, {"detail": null, "name": "SPG", "address": "Jakarta - Pondok Gede"}, {"detail": {"kelurahan": "Jembatan Lima", "longitude": 106.8063689, "formattedAddr": "79, Jemb. Lima, Jl. K.H. Moh. Mansyur, Jemb. Lima, Tambora, Kota Jakarta Barat, Daerah Khusus Ibukota Jakarta 11250, Indonesia", "latitude": -6.144991399999999, "provinsi": "Daerah Khusus Ibukota Jakarta", "kecamatan": "Tambora", "kota": "Kota Jakarta Barat"}, "name": "Jakarta - Jembatan Lima", "address": "Jl. KH Moh. Mansyur No.79-79A , Kel.Jembatan Lima , Kec.Tambora , Jakarta Barat"}, {"detail": {"kelurahan": "Roa Malaka", "longitude": 106.809004, "formattedAddr": "Jl. Kopi No.12, Roa Malaka, Tambora, Kota Jakarta Barat, Daerah Khusus Ibukota Jakarta 11230, Indonesia", "latitude": -6.134559899999999, "provinsi": "Daerah Khusus Ibukota Jakarta", "kecamatan": "Tambora", "kota": "Kota Jakarta Barat"}, "name": "Jakarta - Kota", "address": "Jl. Kopi No.12 , Kel.Roa Malaka , Kec.Tambora , Jakarta Barat"}, {"detail": null, "name": "Jakarta - Lindeteves Trade Center", "address": "Gedung Lindeteves Trade Center GF 2, RA 38-39 , Jl. Hayam Wuruk No. 127 , Jakarta Barat"}, {"detail": {"kelurahan": "Pinangsia", "longitude": 106.8166858, "formattedAddr": "Komp. Ruko Glodok Plaza, Jl. Pinangsia Raya, Pinangsia, Tamansari, Kota Jakarta Barat, Daerah Khusus Ibukota Jakarta 11110, Indonesia", "latitude": -6.1408551, "provinsi": "Daerah Khusus Ibukota Jakarta", "kecamatan": "Tamansari", "kota": "Kota Jakarta Barat"}, "name": "Jakarta - Glodok", "address": "Komplek Ruko Glodok Plaza Blok H-44 , Jl. Pinangsia Raya , Jakarta Barat"}, {"detail": {"kelurahan": "Taman Sari", "longitude": 106.8260246, "formattedAddr": "Jl. Mangga Besar Raya No.84, Taman Sari, Tamansari, Kota Jakarta Barat, Daerah Khusus Ibukota Jakarta 11150, Indonesia", "latitude": -6.148926299999999, "provinsi": "Daerah Khusus Ibukota Jakarta", "kecamatan": "Tamansari", "kota": "Kota Jakarta Barat"}, "name": "Jakarta - Mangga Besar", "address": "Jl. Mangga Besar Raya No. 84 , Kel.Tamansari , Kec.Taman Sari , Jakarta Barat"}, {"detail": null, "name": "Jakarta - Lokasari", "address": "Komplek THR Lokasari Blok B 53 , Jl. Mangga Besar Raya No.81 , Jakarta Barat"}, {"detail": null, "name": "Jakarta - Pintu Kecil", "address": "Ruko , Jl. Pintu Kecil No. 28 - 29 , Jakarta Barat"}, {"detail": {"kelurahan": "Taman Sari", "longitude": 106.8227082, "formattedAddr": "KPP Pratama Jakarta Tamansari Satu, Jalan Mangga Besar Raya No. 52, RT. 2/RW. 2, Taman Sari, RT.2/RW.2, Taman Sari, Tamansari, Kota Jakarta Barat, Daerah Khusus Ibukota Jakarta 11150, Indonesia", "latitude": -6.1493965, "provinsi": "Daerah Khusus Ibukota Jakarta", "kecamatan": "Tamansari", "kota": "Kota Jakarta Barat"}, "name": "Jakarta - Sawah Besar", "address": "Jl. Sukarjowiryopranoto No 9 , Kel.Maphar , Kec.Taman Sari , Jakarta Barat"}, {"detail": null, "name": "Jakarta - Karang Anyar", "address": "Ruko Karang Anyar Permai Blok A1/12A , Jl. Karang Anyar No. 55 , Jakarta Pusat"}, {"detail": null, "name": "Jakarta - Taman Sari", "address": "Jl. Kebon Jeruk III No.39A , Kel.Maphar , Kec.Taman Sari , Jakarta Barat"}, {"detail": null, "name": "Jakarta - Daan Mogot", "address": "Gedung Tanamas , Jl. Daan Mogot No.95 C , Jakarta Barat"}, {"detail": {"kelurahan": "Jelambar Baru", "longitude": 106.791895, "formattedAddr": "Jl. Jelambar Baru Raya No.6, Jelambar Baru, Grogol petamburan, Kota Jakarta Barat, Daerah Khusus Ibukota Jakarta 11460, Indonesia", "latitude": -6.154774, "provinsi": "Daerah Khusus Ibukota Jakarta", "kecamatan": "Grogol petamburan", "kota": "Kota Jakarta Barat"}, "name": "Jakarta - Jelambar", "address": "Jl. Jelambar Baru Raya No.6 E , Kel.Jelambar Baru , Kec.Grogol Petamburan , Jakarta Barat"}, {"detail": null, "name": "Jakarta - Citra Garden 2", "address": "Komp. Citra Niaga II, Ruko Citra II Blok B/8 , Jl. Utan Jati Blok H 3 , Jakarta Barat"}, {"detail": null, "name": "Jakarta - Citra Garden 1", "address": "Perum. Citra Garden I Blok I 1 No.15 , , Jakarta Barat"}, {"detail": null, "name": "Jakarta - Green Ville", "address": "Komplek Greenville , Jl. Greenville Raya Blok AX No.16 , Jakarta Barat"}, {"detail": null, "name": "Jakarta - BluGreen", "address": "Gedung The Bluegreen , Jl. Lingkar Luar Barat Kav. 88 , Jakarta Barat"}, {"detail": null, "name": "Jakarta - Kebon Jeruk Intercon", "address": "Komp. Intercon Plaza Blok F 12 - 12A , Jl. Meruya Ilir , Jakarta Barat"}, {"detail": null, "name": "Jakarta - Puri Botanical Garden", "address": "Ruko Puri Botanical Garden Blok H7 No.29 , Jl. Joglo Raya , Jakarta Barat"}, {"detail": {"kelurahan": "Kebon Jeruk", "longitude": 106.7681083, "formattedAddr": "Graha Kantor, JL. Raya Perjuangan, No. 88, Kebon Jeruk, Komplek Perkantoran Graha Kencana Blok BB, RT.11/RW.10, Kb. Jeruk, Kota Jakarta Barat, Daerah Khusus Ibukota Jakarta 11510, Indonesia", "latitude": -6.1920863, "provinsi": "Daerah Khusus Ibukota Jakarta", "kecamatan": "Kebon Jeruk", "kota": "Kota Jakarta Barat"}, "name": "Jakarta - Graha Kencana", "address": "Ruko Graha Kencana Blok BF , Jl. Pejuangan Raya No. 88 , Jakarta Barat"}, {"detail": null, "name": "Jakarta - RS Siloam Kebon Jeruk", "address": "Siloam Hospital Lt. Dasar , Jl. Pejuangan Raya Kav.8 , Jakarta Barat"}, {"detail": null, "name": "Jakarta - Taman Palem", "address": "Perumahan Taman Palem Lestari, Blok D1 No.2 , Jakarta Barat"}, {"detail": null, "name": "Jakarta - City Resort", "address": "Komp. City Resort Residences Blok D No.2 , Jl. Lingkar Luar Kamal Raya , Jakarta Barat"}, {"detail": null, "name": "Jakarta - Wisma Slipi", "address": "Gedung Wisma Slipi Lt.1 , Jl. Letjend. S. Parman Kav.12 , Jakarta Barat"}, {"detail": {"kelurahan": "Jelambar Baru", "longitude": 106.7808763, "formattedAddr": "Komp. Taman Duta Mas., Jalan Kusuma Blok B3 No. 18, Grogol petamburan, RT.5/RW.12, Jelambar Baru, Grogol petamburan, Kota Jakarta Barat, Daerah Khusus Ibukota Jakarta 11460, Indonesia", "latitude": -6.1503979, "provinsi": "Daerah Khusus Ibukota Jakarta", "kecamatan": "Grogol petamburan", "kota": "Kota Jakarta Barat"}, "name": "Jakarta - Taman Duta Mas", "address": "Taman Duta Mas Blok D9A , Jl. Pangeran Tubagus Angke , Jakarta Barat"}, {"detail": null, "name": "Jakarta - Tomang Raya", "address": "Gedung Rabana Lt.Dasar & 1 , Jl. Tomang Raya No.48 A , Jakarta Barat"}, {"detail": null, "name": "Jakarta - Central Park", "address": "Ruko Garden Shopping Arcade Central Park Blok C 9 Ah , Jl. S. Parman Kav.28 , Jakarta Barat"}, {"detail": null, "name": "Jakarta - Mall Taman Anggrek", "address": "Mal Taman Anggrek GF Lot VII , Jl. S. Parman Kav.21 , Jakarta Barat"}, {"detail": null, "name": "Jakarta - Tanjung Duren", "address": "Ruko Cimb Niaga Tanjung Duren , Jl. Tanjung Duren Raya No.129 B , Jakarta Barat"}, {"detail": null, "name": "Jakarta - Kebon Jeruk", "address": "Rukan Busines Park Kebon Jeruk Blok AB No. 1 , Jl. Raya Meruya Ilir No. 88 , Jakarta Barat"}, {"detail": null, "name": "Jakarta - Central Park Mall", "address": "Central Park Mall, LG Unit L-218 , Jl. S. Parman Kav.28 , Jakarta Barat"}, {"detail": null, "name": "Jakarta - Tomang Tol", "address": "Jl. Taman Kedoya Baru No.8 , Kel.Kedoya Selatan , Kec.Kebon Jeruk , Jakarta Barat"}, {"detail": null, "name": "Jakarta - Green Garden", "address": "Komp. Ruko Green Garden Blok I-9 No.11 , Jl. Panjang , Jakarta Barat"}, {"detail": null, "name": "Jakarta - Pasar Puri", "address": "Ruko Pasar Puri Blok A No. 9 , Jl. Puri Indah Raya Blok A No 9 , Jakarta Barat"}, {"detail": null, "name": "Jakarta - Puri Indah Sentra Niaga", "address": "Komp. Ruko Sentra Niaga Puri Indah, Blok T1 No.26 - 27 , Jakarta Barat"}, {"detail": null, "name": "Jakarta - Mall Ambassador", "address": "Ruko Mall Ambasador No.12 A , Jl. Prof Dr Satrio No 12A, Ruko Mall Ambasador , Jakarta Selatan"}, {"detail": {"kelurahan": "Ulujami", "longitude": 106.762816, "formattedAddr": "Jl. Ciledug Raya No.17, Ulujami, Pesanggrahan, Kota Jakarta Selatan, Daerah Khusus Ibukota Jakarta 12250, Indonesia", "latitude": -6.237335, "provinsi": "Daerah Khusus Ibukota Jakarta", "kecamatan": "Pesanggrahan", "kota": "Kota Jakarta Selatan"}, "name": "Jakarta - Cipulir", "address": "Jl. Ciledug Raya No 17 , Kel.Ulujami , Kec.Pesanggrahan , Jakata Selatan"}, {"detail": null, "name": "Jakarta - Cilandak KKO", "address": "Ruko Cilandak KKO , Jl. Raya Cilandak KKO No. 5A , Jakarta Selatan"}, {"detail": null, "name": "Jakarta - Pondok Indah Icon", "address": "Gedung Cimb Niaga Icon Pondok Indah Gd.A Unit GF 01 & 101 , Jl. Metro Pondok Indah Sektor 3 , Jakarta Selatan"}, {"detail": null, "name": "Jakarta - Bintaro Sektor I", "address": "Jl. Bintaro Utama Raya Blok E 15 - 16 Bintaro Jaya Sektor 1. , Kel.Bintaro , Kec.Pesanggrahan , Jakarta Selatan"}, {"detail": null, "name": "Jakarta - Bidakara", "address": "Menara Bidakara , Jl. Jend Gatot Subroto Kav.71-73 , Jakarta Selatan"}, {"detail": null, "name": "Jakarta - Arcadia Simatupang", "address": "Perkantoran Hijau Arcadia, Tower E, Ground Floor , Jl. Letjen TB Simatupang Kav 88 , Jakarta Selatan"}, {"detail": null, "name": "Jakarta - Universitas Atmajaya", "address": "Kampus Atmajaya, Lt. Dasar Gedung Van Lith , Jl. Jend. Sudirman No. 51 , Jakarta Selatan"}, {"detail": null, "name": "Jakarta - Kota Kasablanka", "address": "Mall Kota Kasablanka LG 100 , Jl. Casablanca Raya Kav 88 , Jakarta Selatan"}, {"detail": null, "name": "Jakarta - Sentraya", "address": "Gd. Menara Sentraya , Jl. Iskandarsyah Raya No 1A , Jakarta Selatan"}, {"detail": null, "name": "Jakarta - Ciputra World Mall", "address": "Ciputra World Mall Ciputra World (Lotte Avenue Shopping), Lantai 2F, Jl. Prof. Dr. Satrio Kav. 11. , Jakarta Selatan"}, {"detail": null, "name": "Jakarta - Kemang Raya 1", "address": "Jl. Kemang Raya Kav. 1 , Kel.Bangka , Kec.Mampang , Jakarta Selatan"}, {"detail": {"kelurahan": "Kebayoran Lama Selatan", "longitude": 106.781803, "formattedAddr": "Jl. Sultan Iskandar Muda No.35F, Kby. Lama Sel., Kby. Lama, Kota Jakarta Selatan, Daerah Khusus Ibukota Jakarta 12240, Indonesia", "latitude": -6.250533, "provinsi": "Daerah Khusus Ibukota Jakarta", "kecamatan": "Kebayoran Lama", "kota": "Kota Jakarta Selatan"}, "name": "Jakarta - Sultan Iskandar Muda", "address": "Jl. Sultan Iskandarmuda No.35F , Kel.Kebayoran Lama Selatan , Kec.Kebayoran Lama , Jakarta Selatan"}, {"detail": {"kelurahan": "Kuningan Timur", "longitude": 106.8241969, "formattedAddr": "The Bellagio Residence, Jl. Mega Kuningan Barat Kav. E4 No. 3, Kuningan Timur, Setiabudi, RT.5/RW.2, Kuningan Tim., Kota Jakarta Selatan, Daerah Khusus Ibukota Jakarta 12950, Indonesia", "latitude": -6.2273443, "provinsi": "Daerah Khusus Ibukota Jakarta", "kota": "Kota Jakarta Selatan"}, "name": "Jakarta - Bellagio", "address": "The Bellagio Boutique Mal , Kawasan Mega Kuningan Barat Kav E 4 No 3 , Jakarta Selatan"}, {"detail": null, "name": "Jakarta - ITC Fatmawati", "address": "KOMP. PERTOKOAN DUTA MAS FATMAWATI BLOK B1 NO.3 Kel. Cipete Utara Jakarta Selatan"}, {"detail": null, "name": "Jakarta - Gatot Subroto", "address": "Berita Satu Plaza (D/H Citra Graha) Lt. Dasar , Jl. Gatot Subroto Kav 35-36 , Jakarta Selatan"}, {"detail": null, "name": "Jakarta - Graha CIMB Niaga", "address": "Graha Cimb Niaga , Jl. Jend. Sudirman Kav. 58 , Jakarta Selatan"}, {"detail": null, "name": "Jakarta - Mall Gandaria City", "address": "Pertokoan Gandaria City LG Unit L-47 , Jl. Sultan Iskandar Muda , Jakarta Selatan"}, {"detail": {"kelurahan": "Cipete Selatan", "longitude": 106.798035, "formattedAddr": "Jl. RS Fatmawati No.20, Cipete Sel., Cilandak, Kota Jakarta Selatan, Daerah Khusus Ibukota Jakarta 12410, Indonesia", "latitude": -6.27438, "provinsi": "Daerah Khusus Ibukota Jakarta", "kecamatan": "Cilandak", "kota": "Kota Jakarta Selatan"}, "name": "Jakarta - Fatmawati 20", "address": "RS Fatmawati No 20 , Kel.Cipete Selatan , Kec.Cilandak , Jakarta Selatan"}, {"detail": null, "name": "Jakarta - Kemang Raya 47", "address": "Jl. Kemang Raya No. 47-D , Kel.Bangka , Kec.Mampang , Jakarta Selatan"}, {"detail": {"kelurahan": "Melawai", "longitude": 106.8016307, "formattedAddr": "Jl. Melawai No.50, Melawai, Kby. Baru, Kota Jakarta Selatan, Daerah Khusus Ibukota Jakarta 12160, Indonesia", "latitude": -6.2458778, "provinsi": "Daerah Khusus Ibukota Jakarta", "kecamatan": "Kebayoran Baru", "kota": "Kota Jakarta Selatan"}, "name": "Jakarta - Melawai", "address": "Jl. Melawai Raya No.50 , Kel.Kramat Pela , Kec.Kebayoran Baru , Jakarta Selatan"}, {"detail": null, "name": "Jakarta - Lapangan Roos", "address": "Jl. Lapangan Roos Raya II No.8 , Kel.Tebet , Kec.Tebet , Jakarta Selatan"}, {"detail": null, "name": "Jakarta - Pasar Minggu", "address": "Jl. Pasar Minggu Km.19 No.98 C , Kel.Pasar Minggu , Kec.Pasar Minggu , Jakarta Selatan"}, {"detail": null, "name": "Jakarta - Kuningan Plaza", "address": "Kuningan Plaza South Tower Suite 101 , Jl. Hr Rasuna Said Kav. C11-14 , Jakarta Selatan"}, {"detail": null, "name": "Jakarta - Tempo Scan", "address": "Tempo Scan Tower Lt.2 , Jl. Hr Rasuna Said Kav.3-4 , Jakarta Selatan"}, {"detail": null, "name": "Jakarta - Kuningan City Mall", "address": "Kuningan City Mall, Lt. LG , Jl. Prof. Dr Satrio Kuningan , Jakarta Selatan"}, {"detail": {"kelurahan": "Guntur", "longitude": 106.8315731, "formattedAddr": "Menara Imperium, Jl. H. R. Rasuna Said, Guntur, Setia Budi, Kota Jakarta Selatan, Daerah Khusus Ibukota Jakarta 12980, Indonesia", "latitude": -6.2102631, "provinsi": "Daerah Khusus Ibukota Jakarta", "kecamatan": "Setia Budi", "kota": "Kota Jakarta Selatan"}, "name": "Jakarta - Menara Imperium", "address": "Menara Imperium , Jl. H.R. Rasuna Said Kav.1 , Jakarta Selatan"}, {"detail": {"kelurahan": "Grogol Selatan", "longitude": 106.7671677, "formattedAddr": "Jl. Komp. Permata Hijau No.30, Grogol Sel., Kby. Lama, Kota Jakarta Selatan, Daerah Khusus Ibukota Jakarta 12220, Indonesia", "latitude": -6.2283757, "provinsi": "Daerah Khusus Ibukota Jakarta", "kecamatan": "Kebayoran Lama", "kota": "Kota Jakarta Selatan"}, "name": "Jakarta - Permata Hijau", "address": "Jl. Komp.Permata Hijau Blok D No. 30 , Kel.Grogol Utara , Kec.Kebayoran Lama , Jakarta Selatan"}, {"detail": null, "name": "Jakarta - PIM 2", "address": "Mall Pondok Indah 2, GF Unit No. G33D , Jl. Metro Pondok Indah , Jakarta Selatan"}, {"detail": null, "name": "Pondok Indah Plaza 3", "address": "Komplek Pertokoan Pondok Indah Plaza 3 Blok C 6-7. JL TB Simatupang ."}, {"detail": null, "name": "Jakarta - Pacific Place", "address": "Mall Pacific Place Lt.3 Unit 3-21, SCBD , Jl. Jend Sudirman Kav.52-53 , Jakarta Selatan"}, {"detail": null, "name": "Jakarta - Graha CIMB Niaga", "address": "Graha Cimb Niaga , Jl. Jend. Sudirman Kav. 58 , Jakarta Selatan"}, {"detail": null, "name": "Jakarta - Wisma Metropolitan", "address": "Wisma Metropolitan II , Jl. Jend. Sudirman Kav. 29-30 , Jakarta Selatan"}, {"detail": null, "name": "Jakarta - Metro Pondok Indah", "address": "Pondok Indah Plaza I , Jl. Metro Duta Niaga Blok II UA Kav. 67-69 , Jakarta Selatan"}, {"detail": null, "name": "Jakarta - Menara Satrio", "address": "Menara Standard Chartered Unit GF 3-5, , Jl. Prof Dr. Satrio Kav. 164 , Jakarta Selatan"}, {"detail": {"kelurahan": "Duren Tiga", "longitude": 106.8273339, "formattedAddr": "Graha Mampang, Jl. Buncit Raya No.100, Duren Tiga, Pancoran, Kota Jakarta Selatan, Daerah Khusus Ibukota Jakarta 12760, Indonesia", "latitude": -6.25615, "provinsi": "Daerah Khusus Ibukota Jakarta", "kecamatan": "Pancoran", "kota": "Kota Jakarta Selatan"}, "name": "Jakarta - Graha Mampang", "address": "Graha Mampang , Jl. Buncit Raya No. 100 , Jakarta Selatan"}, {"detail": null, "name": "Jakarta - Mugi Griya", "address": "Gd.Mugi Griya, Lantai Dasar R. 101 , Jl. Mt Haryono Kav.10 , Jakarta Selatan"}, {"detail": null, "name": "Jakarta - Setiabudi", "address": "Setiabudi Building II Lt.1 Ruang 101B , Jl. Hr Rasuna Said Kav 62, Kuningan , Jakarta Selatan"}, {"detail": null, "name": "Jakarta - Stock Exchange Building", "address": "Gd. BEJ Tower 2, GF Suite G 03-04 , Jl. Jend. Sudirman Kav.52-53 , Jakarta Selatan"}, {"detail": null, "name": "Jakarta - Graha Sucofindo", "address": "Graha Sucofindo Lt. 1 , Jl. Raya Ps. Minggu Kav. 34 , Jakarta Selatan"}, {"detail": null, "name": "Jakarta - Mall Ratu Plaza", "address": "Mall Ratu Plaza , Jl. Jend. Sudirman Kav 9. Lt. Ground, Unit G , Jakarta Selatan"}, {"detail": {"kelurahan": "Pulo", "longitude": 106.7972249, "formattedAddr": "Jl. Panglima Polim Raya No.81, Pulo, Kby. Baru, Kota Jakarta Selatan, Daerah Khusus Ibukota Jakarta 12160, Indonesia", "latitude": -6.2544283, "provinsi": "Daerah Khusus Ibukota Jakarta", "kecamatan": "Kebayoran Baru", "kota": "Kota Jakarta Selatan"}, "name": "Jakarta - Panglima Polim", "address": "Jl. Panglima Polim Raya No. 81 , Kel.Pulo , Kec.Kebayoran Baru , Jakarta Selatan"}, {"detail": {"kelurahan": "Palmerah", "longitude": 106.795159, "formattedAddr": "Jl. Palmerah Barat No.32, Palmerah, Kota Jakarta Barat, Daerah Khusus Ibukota Jakarta 11480, Indonesia", "latitude": -6.207526, "provinsi": "Daerah Khusus Ibukota Jakarta", "kecamatan": "Palmerah", "kota": "Kota Jakarta Barat"}, "name": "Jakarta - Palmerah Barat", "address": "Jl. Palmerah Barat No.32 G , Kel.Palmerah , Kec.Palmerah , Jakarta Barat"}, {"detail": null, "name": "Jakarta - Wisma Pondok Indah", "address": "Wisma Pondok Indah I, Lt. Dasar Suite G01 , Jl. Sultan Iskandar Muda Kav. V - TA , Jakarta Selatan"}, {"detail": null, "name": "Jakarta - Wolter Monginsidi", "address": "Jl. Wolter Monginsidi No.88 J , Kel.Petogogan , Kec.Keb Baru , Jakarta Selatan"}, {"detail": {"kelurahan": "Mampang Prapatan", "longitude": 106.828868, "formattedAddr": "Kantor Kelurahan Mampang Prapatan, Jl. Mampang Prpt. Raya Gg. Lurah No.4, RT.8/RW.5, Mampang Prpt., Kota Jakarta Selatan, Daerah Khusus Ibukota Jakarta 12790, Indonesia", "latitude": -6.244956, "provinsi": "Daerah Khusus Ibukota Jakarta", "kecamatan": "Mampang Prapatan", "kota": "Kota Jakarta Selatan"}, "name": "Jakarta - Warung Buncit", "address": "Jl. Mampang Prapatan No.101 , Kel.Tegal Parang , Kec.Mampang , Jakarta Selatan"}, {"detail": {"kelurahan": "Tebet Barat", "longitude": 106.8468987, "formattedAddr": "Jl. Prof. DR. Supomo No.15, Tebet Bar., Tebet, Kota Jakarta Selatan, Daerah Khusus Ibukota Jakarta 12870, Indonesia", "latitude": -6.230493, "provinsi": "Daerah Khusus Ibukota Jakarta", "kecamatan": "Tebet", "kota": "Kota Jakarta Selatan"}, "name": "Jakarta - Tebet", "address": "Jl. Prof. Dr. Supomo, SH No. 15 A , Kel.Tebet Barat , Kec. Tebet , Jakarta Selatan"}, {"detail": null, "name": "Jakarta - Sentraya", "address": "Menara sentraya .Jl. iskandarsyah II no.2 , Jakarta Selatan"}, {"detail": null, "name": "Jakarta - Metro Pondok Indah", "address": "Metro Duta Niaga, Pondok Indah Plaza I Blok UA Kav.67-69 , Jakarta Selatan"}, {"detail": null, "name": "Jakarta - Menara Sudirman", "address": "Gedung Menara Sudirman GFA , Jl. Jendral Sudirman kav 60 , Jakarta Selatan"}, {"detail": null, "name": "Jakarta - BEJ", "address": "Gd. BEJ Tower 2, Gf Suite G 03-04 , Jl. Jend. Sudirman Kav.52-53 , Jakarta Selatan"}, {"detail": null, "name": "Jakarta - Jembatan Dua", "address": "Kompleks Robinson-Jembatan Dua , Jl. Jembatan Dua Raya Blok BJ - Bl No.82 , Jakarta Utara"}, {"detail": null, "name": "Jakarta - Permata Kota", "address": "Kompleks Permata Kota , Jl. Pangeran Tubagus Angke No.170, Blok A Kav.No.3 , Jakarta Utara"}, {"detail": null, "name": "Jakarta - Pantai Indah Kapuk", "address": "Rukan Exlusive Bukit Golf Mediterania Blok A No.30 , Jl. Marina Indah , Jakarta Utara"}, {"detail": null, "name": "Jakarta - Pantai Indah Kapuk Mediterania", "address": "Pantai Indah Kapuk, Ruko Mediterania Tahap II Blok K BK , Jakarta Utara"}, {"detail": null, "name": "Jakarta - Muara Karang", "address": "Jl. Muara Karang Raya No.35-37 , Kel.Penjaringan Utara , Kec.Penjaringan , Jakarta Utara"}, {"detail": null, "name": "Jakarta - Mangga Dua Pasar Pagi", "address": "Gedung Pusat Grosir Pasar Pagi Mangga Dua , Arteri Mangga Dua Blok D3 No 3 Lantai 3 , Jakarta Utara"}, {"detail": null, "name": "Jakarta - Mangga Dua Rutex", "address": "Riuko Textile Blok C6 No 3 , Jl. Arteri Mangga Dua Raya , Jakarta Utara"}, {"detail": null, "name": "Jakarta - Ancol", "address": "Indo Ruko , Jl. Lodan Raya No. 1 AM , Jakarta Utara"}, {"detail": null, "name": "Jakarta - Gunung Sahari 42", "address": "Ruko , Jl. Gunung Sahari Raya 42E , Jakarta Pusat"}, {"detail": null, "name": "Jakarta - Marunda", "address": "Kantor Unit Usaha Kawasan Berikat Nusantara ( KBN ) Marunda , Jl. Lampung No 1 Blok C-02 , Jakarta Utara"}, {"detail": null, "name": "Jakarta - Tanjung Priok", "address": "Ruko Enggano Megah Blok C , Jl. Enggano Blok C Kav.11-I , Jakarta Utara"}, {"detail": null, "name": "Jakarta - Griya Inti Sunter", "address": "Ruko Griya Inti Sentosa Blok A1 No. 14 Kav. 21 , Jl. Griya Utama Sunter No. 14 , Jakarta Utara"}, {"detail": null, "name": "Jakarta - Sunter", "address": "Ruko Sunter Paradise Blok F.20 No.1-2 , Jl. Danau Sunter Utara , Jakarta Utara"}, {"detail": null, "name": "Jakarta - Mal Artha Gading", "address": "Mall Artha Gading Lantai Gf , Jl. Boulevard Artha Gading Selatan No.1 , Jakarta Utara"}, {"detail": null, "name": "Jakarta - Kelapa Gading Bulevard Barat", "address": "Ruko , Jl. Bulevard Barat Raya Blok LC 6 No. 41 , Jakarta Utara"}, {"detail": null, "name": "Jakarta - Sekolah Mahatma Gandhi", "address": "Sekolah Mahatma Gading , Jl. Boulevard Bgr, Komp Villa Gading Indah Blok D , Jakarta Utara"}, {"detail": null, "name": "Jakarta - Bukit Gading Indah", "address": "Rukan Bukit Gading Indah , Jl. Bukit Gading Raya Blok G/28 , Jakarta Utara"}, {"detail": null, "name": "Jakarta - Kelapa Gading LB", "address": "Ruko , Jl. Boulevard Raya Blok LB 3 No 34-36 , Jakarta Utara"}, {"detail": null, "name": "Jakarta - PIK Avenue", "address": "PIK AVENUE MALL LT. 3 JL. PANTAI INDAH KAPUK BOULEVARD, JAKARTA UTARA"}, {"detail": null, "name": "Jakarta - Jakarta Garden City", "address": "Shopping Arcade Jakarta Garden City , Jl. Raya Cakung - Cilincing Km 05 , Jakarta Timur"}, {"detail": null, "name": "Jakarta - Mall Kelapa Gading", "address": "Mal Kelapa Gading 1, Unit G-178 , Jl. Bulevard Raya Blok M III , Jakarta Utara"}, {"detail": null, "name": "Jakarta - Kelapa Gading TN", "address": "Gedung , Jl. Bulevard Raya Blok TN II No. 1-4 , Jakarta Utara"}, {"detail": null, "name": "Jakarta - Teluk Gong", "address": "Komp. Duta Harapan Indah , Jl. Kapuk Muara Blok D No.3 , Jakarta Utara"}, {"detail": {"kelurahan": "Pluit", "longitude": 106.788315, "formattedAddr": "Jl. Pluit Sakti No.113-115, Pluit, Penjaringan, Kota Jkt Utara, Daerah Khusus Ibukota Jakarta 14450, Indonesia", "latitude": -6.1224984, "provinsi": "Daerah Khusus Ibukota Jakarta", "kecamatan": "Penjaringan", "kota": "Kota Jakarta Utara"}, "name": "Jakarta - Pluit", "address": "Jl. Pluit Sakti Raya No.113-115 , Kel.Pluit , Kec.Penjaringan , Jakarta Utara"}, {"detail": null, "name": "Jakarta - RS Grand Family", "address": "Rs Grand Family, Komp. Elang Laut. Boulevard Kav. 1 No.1 , Jl. Pantai Indah Selatan I , Jakarta Utara"}, {"detail": null, "name": "Jakarta - Pluit Village", "address": "Mega Mal Pluit Ruko No.24 , Jl. Pluit Permai Raya Ruko No 24 , Jakarta Utara"}, {"detail": null, "name": "Jakarta - Kelapa Gading", "address": "Ruko Kelapa Gading Square Blok D no.32 , Jl. Raya Boulevard Barat , Jakarta Utara"}, {"detail": null, "name": "Jakarta - Mal Emporium Pluit", "address": "Mall Emporium Pluit Lantai UG (Atm Centre), Kawasan Cbd Pluit, Blok S-6 , Jl. Pluit Selatan Raya , Jakarta Utara"}, {"detail": {"kelurahan": "Petojo Utara", "longitude": 106.818791, "formattedAddr": "Jl. Gajah Mada No.18, Petojo Utara, Gambir, Kota Jakarta Pusat, Daerah Khusus Ibukota Jakarta 10130, Indonesia", "latitude": -6.161429, "provinsi": "Daerah Khusus Ibukota Jakarta", "kecamatan": "Gambir", "kota": "Kota Jakarta Pusat"}, "name": "Jakarta - Gajah Mada", "address": "Jl. Gajah Mada No. 18 , Kel.Petojo Utara , Kec.Gambir , Jakarta Pusat"}, {"detail": null, "name": "Jakarta - Gajah Mada Kejayaan", "address": "Jl. Gajah Mada No.85B , Kel.Krukut , Kec.Taman Sari , Jakarta Barat"}, {"detail": null, "name": "Jakarta - Pecenongan", "address": "Ruko Pecenongan Raya , Jl. Pecenongan Raya No. 17-E , Jakarta Pusat"}, {"detail": null, "name": "Jakarta - Hayam Wuruk", "address": "Ruko ( Toko Rejeki ) , Jl. Hayam Wuruk No. 2AA, 2BB, 2C, 2D, 3A Dan 3D , Jakarta Pusat"}, {"detail": null, "name": "Jakarta - Suryopranoto", "address": "Komp. Delta Building , Jl. Suryopranoto No.1 - 9, Komp. Delta Building Blok A No. 18 , Jakarta Pusat"}, {"detail": null, "name": "Jakarta - Jayakarta", "address": "Perkantoran Duta , Jl. Pangeran Jayakarta 117 Blok A6-7 , Jakarta Pusat"}, {"detail": {"kelurahan": "Gunung Sahari Selatan", "longitude": 106.8396512, "formattedAddr": "Konica Building, Jl. Gunung Sahari Raya No. 78, Kemayoran, RT.10/RW.7, Gn. Sahari Sel., Kemayoran, Kota Jakarta Pusat, Daerah Khusus Ibukota Jakarta 10610, Indonesia", "latitude": -6.166684900000001, "provinsi": "Daerah Khusus Ibukota Jakarta", "kecamatan": "Kemayoran", "kota": "Kota Jakarta Pusat"}, "name": "Jakarta - Gunung Sahari 78", "address": "Gedung Konica , Jl. Gunung Sahari Raya No. 78 , Jakarta Pusat"}, {"detail": {"kelurahan": "Ancol", "longitude": 106.8296874, "formattedAddr": "Jamsostek Mangga Dua, Grand Boutique Center, C-5, Jl. Mangga Dua Raya, RT.11/RW.5, Ancol, Pademangan, Kota Jkt Utara, Daerah Khusus Ibukota Jakarta 14430, Indonesia", "latitude": -6.135028399999999, "provinsi": "Daerah Khusus Ibukota Jakarta", "kecamatan": "Pademangan", "kota": "Kota Jakarta Utara"}, "name": "Jakarta - Mangga Dua Mall", "address": "Ruko Mangga Dua Mall No.9B , Jl. Mangga Dua Raya , Jakarta Pusat"}, {"detail": null, "name": "Jakarta - Pintu Air", "address": "Komplek Pertokoan Mitra Pintu Air Blok A2-3 , Jl. Pintu Air Raya No. 7 , Jakarta Pusat"}, {"detail": null, "name": "Jakarta - Pasar Baru", "address": "Komplek Pertokoan Pasar Baru , Jl. Pasar Baru No.88 , Jakarta Pusat"}, {"detail": null, "name": "Jakarta - Kemayoran", "address": "Ruko Angkasa Blok M , Jl. Angkasa No.20 , Jakarta Pusat"}, {"detail": null, "name": "Jakarta - Roxy Mas", "address": "Komp. Roxy Mas Blok B 1 No.4 , Jl. KH. Hasyim Ashari No.125 , Jakarta Pusat"}, {"detail": {"kelurahan": "Cideng", "longitude": 106.8111825, "formattedAddr": "Jl. Cideng Barat No.61-61A, Cideng, Gambir, Kota Jakarta Pusat, Daerah Khusus Ibukota Jakarta 10150, Indonesia", "latitude": -6.174014499999999, "provinsi": "Daerah Khusus Ibukota Jakarta", "kecamatan": "Gambir", "kota": "Kota Jakarta Pusat"}, "name": "Jakarta - Cideng", "address": "Jl. Cideng Barat No.61 - 61A , Kel.Gambir , Kec.Gambir , Jakarta Pusat"}, {"detail": {"kelurahan": "Cikini", "longitude": 106.837991, "formattedAddr": "Jl. Cikini Raya No.71A, Cikini, Menteng, Kota Jakarta Pusat, Daerah Khusus Ibukota Jakarta 10330, Indonesia", "latitude": -6.189729, "provinsi": "Daerah Khusus Ibukota Jakarta", "kecamatan": "Menteng", "kota": "Kota Jakarta Pusat"}, "name": "Jakarta - Cikini", "address": "Jl. Cikini Raya No.71.A , Kel.Cikini , Kec.Menteng , Jakarta Pusat"}, {"detail": {"kelurahan": "Kwitang", "longitude": 106.8399942, "formattedAddr": "Jl. Kwitang Raya No.18, Kwitang, Senen, Kota Jakarta Pusat, Daerah Khusus Ibukota Jakarta 10420, Indonesia", "latitude": -6.180676, "provinsi": "Daerah Khusus Ibukota Jakarta", "kecamatan": "Senen", "kota": "Kota Jakarta Pusat"}, "name": "Jakarta - Gambir", "address": "Jl. Kwitang Raya 18 , Kel.Kwitang , Kec.Senen , Jakarta Pusat"}, {"detail": {"kelurahan": "Menteng", "longitude": 106.8289067, "formattedAddr": "Wisma Aria, Jl. HOS. Cokroaminoto No.81, Menteng, Kota Jakarta Pusat, Daerah Khusus Ibukota Jakarta 10310, Indonesia", "latitude": -6.1972296, "provinsi": "Daerah Khusus Ibukota Jakarta", "kecamatan": "Menteng", "kota": "Kota Jakarta Pusat"}, "name": "Jakarta - Menteng", "address": "Jl. Hos Tjokroaminoto No 81 , Jakarta Pusat"}, {"detail": {"kelurahan": "Gambir", "longitude": 106.827033, "formattedAddr": "Jl. Kebon Sirih No.33, Gambir, Kota Jakarta Pusat, Daerah Khusus Ibukota Jakarta 10340, Indonesia", "latitude": -6.1830517, "provinsi": "Daerah Khusus Ibukota Jakarta", "kecamatan": "Gambir", "kota": "Kota Jakarta Pusat"}, "name": "Jakarta - Kebon Sirih", "address": "Jl. Kebon Sirih No.33 , Kel.Kebon Sirih , Kec.Menteng , Jakarta Pusat"}, {"detail": null, "name": "Jakarta - Menara Merdeka", "address": "Menara Merdeka GF Unit 01 , Jl. Budi Kemuliaan I No.2 , Jakarta Pusat"}, {"detail": {"kelurahan": "Karet Tengsin", "longitude": 106.8213355, "formattedAddr": "Wisma Nugra Santana, Jl. Jenderal Sudirman No.Kav 7-8, Karet Tengsin, Tanah Abang, Kota Jakarta Pusat, Daerah Khusus Ibukota Jakarta 10250, Indonesia", "latitude": -6.2083992, "provinsi": "Daerah Khusus Ibukota Jakarta", "kecamatan": "Tanah Abang", "kota": "Kota Jakarta Pusat"}, "name": "Jakarta - Nugra Santana", "address": "Wisma Nugra Santana , Jl. Jend. Sudirman Kav. 7-8 , Jakarta Selatan"}, {"detail": null, "name": "Jakarta - Citywalk", "address": "Jl. KH Mas Mansyur No. 24A Kav. 121 , Jakarta Pusat"}, {"detail": null, "name": "Jakarta - Pejompongan", "address": "Jl. Penjernihan No.1 No.1A/A Dan 1A/B , Kel.Bendungan Hilir , Kec.Tn Abang , Jakarta Pusat"}, {"detail": null, "name": "Jakarta - Sentral Senayan II", "address": "Gedung Sentral Senayan II, GF Unit No.201 D , Jl. Asia Afrika No.8, Senayan , Jakarta Pusat"}, {"detail": null, "name": "JAKARTA - PLAZA SINAR MAS LAND", "address": "Plaza Sinar Mas Land Tower 3, GF , Jl. Mh Thamrin No 51 , Jakarta Pusat"}, {"detail": null, "name": "Jakarta - Wisma 46", "address": "Wisma 46,Kota BNI, GF Suite G 11 , Jl. Jendral Sudirman Kav 1 , Jakarta Pusat"}, {"detail": null, "name": "Jakarta - Plaza Indonesia", "address": "Plaza Indonesia Retail Extention , Jl. Mh Thamrin Kav 28-30, Unit L5 # E16A \u2013 E 17 , Jakarta Pusat"}, {"detail": null, "name": "Jakarta - Grand Indonesia", "address": "Grand Indonesia Shopping Town Lt.5 , Jl. Mh Thamrin No.1 , Jakarta Pusat"}, {"detail": {"kelurahan": "Kebon Kacang", "longitude": 106.8178376, "formattedAddr": "Jl. K.H. Wahid Hasyim No.177, Kb. Kacang, Tanah Abang, Kota Jakarta Pusat, Daerah Khusus Ibukota Jakarta 10240, Indonesia", "latitude": -6.187163099999999, "provinsi": "Daerah Khusus Ibukota Jakarta", "kecamatan": "Tanah Abang", "kota": "Kota Jakarta Pusat"}, "name": "Jakarta - Wahid Hasyim", "address": "Jl. Wahid Hasyim No. 177 A-B , Kel.Kebon Kacang , Kec.Tanah Abang , Jakarta Pusat"}, {"detail": null, "name": "Jakarta - Metro Tanah Abang", "address": "Banking Center Lantai 7 Unit 20, Pusat Pertokoan Pgmta , Jl. KH. Fachrudin No. 151 , Jakarta Pusat"}, {"detail": {"kelurahan": "Petojo Utara", "longitude": 106.812628, "formattedAddr": "Jl. A.M Sangaji No.17, Petojo Utara, Gambir, Kota Jakarta Pusat, Daerah Khusus Ibukota Jakarta 10130, Indonesia", "latitude": -6.1630607, "provinsi": "Daerah Khusus Ibukota Jakarta", "kecamatan": "Gambir", "kota": "Kota Jakarta Pusat"}, "name": "Jakarta - AM Sangaji", "address": "Jl. AM Sangaji No. 17 Blok C-D , Kel. Petojo Utara , Kec. Gambir , Jakarta Pusat"}, {"detail": null, "name": "Jakarta - Senayan City", "address": "Mall Senayan City LG Unit L 16 , Jl. Asia Afrika Lot 19 Jakarta Pusat 10270 , Jakarta Pusat"}, {"detail": null, "name": "Jakarta - Cempaka Mas", "address": "Rukan Graha Cempaka Mas , Jl. Letjen Suprapto No Bl A/20 , Jakarta Pusat"}, {"detail": null, "name": "Jakarta - Cempaka Putih 68", "address": "Ruko Cempaka Putih Permai Blok.A , Jl. Letjend Suprapto No. 68 , Jakarta Pusat"}, {"detail": null, "name": "Jakarta - Pasar Tanah Abang Blok A", "address": "Ps. Tanah Abang Blok A Basement 1 Los F No.87 , Jl. KH. Fachrudin No.36 , Jakarta Pusat"}, {"detail": null, "name": "Cilegon - City Square", "address": "Ruko Cilegon City Square , Jl. A.Yani Blok A Kav. No. 9 & 10 , Cilegon"}, {"detail": null, "name": "Cilegon - Wisma Permata", "address": "Wisma Permata (Krakatau Steel) , Jl. Kh. Yasin Beji No. 2 , Cilegon"}, {"detail": {"kelurahan": "Kotabaru", "longitude": 106.1540896, "formattedAddr": "Jl. Maulana Hasanudin No.26, Kotabaru, Kec. Serang, Kota Serang, Banten 42112, Indonesia", "latitude": -6.112455, "provinsi": "Banten", "kecamatan": "Kecamatan Serang", "kota": "Kota Serang"}, "name": "Serang - Hasanuddin", "address": "Jl. M.Hasanuddin No. 26 , Kel.Kota Baru , Kec.Serang , Serang"}, {"detail": null, "name": "Tangerang - Tangerang City", "address": "Ruko Tangerang City Blok A No 15 , Jl. Jend Sudirman , Banten"}, {"detail": null, "name": "Tangerang - Citra Raya", "address": "Ruko Citra Raya , Citra Raya Boulevard Blok C1 No. 9R , Tangerang"}, {"detail": null, "name": "Tangerang - LG Cirarab", "address": "Gedung LG , Jl. Tabri No.1 , Tangerang"}, {"detail": null, "name": "Tangerang - Karawaci", "address": "Gedung Menara Cimb Niaga , Jl. Raya Diponegoro Boulevard Palem Raya No.101, Lippo Village , Tangerang"}, {"detail": null, "name": "Tangerang - RS Siloam Gleneagles", "address": "Gedung Rs Siloam Glenegles , Jl. Siloam No 6 Lippo Village Tangerangg , Tangerang"}, {"detail": null, "name": "Tangerang - Cyber Park", "address": "Ruko Gajah Mada Cyberpark , Jl. Boulevard Gajah Mada No.2056 Lippo Karawaci Tangerang , Tangerang"}, {"detail": null, "name": "Tangerang - Pinangsia", "address": "Ruko Pinangsia - Karawaci Office Park, Blok B No. 1 , Jl. Imam Bonjol , Tangerang"}, {"detail": null, "name": "Tangerang - Sekolah Pelita Harapan", "address": "Sekolah Pelita Harapan , Jl. Boulevard Palem Raya 2500 Lippo Village , Tangerang"}, {"detail": null, "name": "Tangerang - Universitas Pelita Harapan", "address": "Dynaplast Tower, Lantai Dasar , Jl. Mh. Thamrin No 1, Lippo Karawaci , Tangerang"}, {"detail": null, "name": "Tangerang - Supermall Karawaci", "address": "Supermall Karawaci Lt. FF , Jl. Boulevard Diponegoro 105 , Tangerang"}, {"detail": null, "name": "Tangerang - Alam Sutera Icon", "address": "Synergy Building , Jl. Jalur Sutera Barat Kav.17 , Tangerang"}, {"detail": null, "name": "Tangerang - WTC Serpong", "address": "Ruko Mall WTC Matahari Serpong, Ruko No 5803 - 5805 , Jl. Raya Serpong No 39 , Tangerang"}, {"detail": null, "name": "Tangerang - Alam Sutera", "address": "Ruko Jalur Sutera , Jl. Ruko Jalur Sutera 29D No.46 , Tangerang"}, {"detail": null, "name": "Tangerang - Pasar Modern BSD", "address": "Ruko Golden Madrid Blok C No.7 , Jl. Letnan Sutopo , Tangsel"}, {"detail": null, "name": "Tangerang - ITC BSD", "address": "Ruko ITC BSD No 26-27 , Jl. Pahlawan Seribu , Tangerang Selatan"}, {"detail": null, "name": "Tangerang - Gading Serpong", "address": "Ruko Alexandrite , Jl. Bulevar Gading Serpong , Tangerang"}, {"detail": null, "name": "Tangerang - RS Bethsaida", "address": "Bethsaida Hospital , Jl. Boulevard Gading Serpong , Distric Tivoli No.1, Paramount Serpong, Tangerang"}, {"detail": null, "name": "Tangerang - Mall Living World", "address": "Mall Living World, Lt. 1 , Alam Sutera Boulevard Kav. 21 , Tangerang"}, {"detail": null, "name": "Tangerang - AEON Mall", "address": "Aeon Mall Lt. Dasar Unit G-52 , Grand Boulevard BSD City , Tangerang"}, {"detail": {"kelurahan": "Sukarasa", "longitude": 106.630086, "formattedAddr": "Jl. Daan Mogot No.58, Sukarasa, Kec. Tangerang, Kota Tangerang, Banten 15111, Indonesia", "latitude": -6.1739905, "provinsi": "Banten", "kecamatan": "Kecamatan Tangerang", "kota": "Kota Tangerang"}, "name": "Tangerang - Daan Mogot", "address": "Jl. Daan Mogot No 58 , Kel.Sukarasa , Kec.Tangerang , Tangerang"}, {"detail": null, "name": "Tangerang - Taman Cibodas", "address": "Duta Mas Plaza Blok A.33 , Jl. Raya Gatot Subroto Km.4 Perum Taman Cibodas , Tangerang"}, {"detail": {"kelurahan": "Sukasari", "longitude": 106.6313069, "formattedAddr": "Jl. Kisamaun No.40, Sukasari, Kec. Tangerang, Kota Tangerang, Banten 15118, Indonesia", "latitude": -6.183611399999999, "provinsi": "Banten", "kecamatan": "Kecamatan Tangerang", "kota": "Kota Tangerang"}, "name": "Tangerang - Kisamaun", "address": "Jl. Kisamaun No 40-41 , Tangerang"}, {"detail": null, "name": "Tangerang - Bandara Terminal 2E", "address": "Terminal 2E (Keberangkatan) EOD 68A, Bandara Internasional Soekarno Hatta , Bandara Internasional Soekarno Hatta , Tangerang"}, {"detail": null, "name": "Tangerang - Bintaro Griya Niaga", "address": "Gedung Griya Niaga 2 Lt.GF , Jl. K.H.Wahid Hasyim Blok B4 No.3 Sektor 7 , Tangerang"}, {"detail": null, "name": "Tangerang - Ciledug", "address": "Perum Pondok Lestari Blok A 1 No , Jl. Ciledug Raya No 17 , Tangerang"}, {"detail": null, "name": "Tangerang - Bintaro Graha Raya", "address": "Ruko Venice Arcade , Jl. Boulevard Raya Ruko Venice Arcade Blok Je No.1 , Tangerang Selatan"}, {"detail": {"kelurahan": "Cipayung", "longitude": 106.746531, "formattedAddr": "Jl. Dewi Sartika No.25F, Cipayung, Ciputat, Kota Tangerang Selatan, Banten 15411, Indonesia", "latitude": -6.318596, "provinsi": "Banten", "kecamatan": "Ciputat", "kota": "Kota Tangerang Selatan"}, "name": "Tangerang - Ciputat", "address": "Jl. Dewi Sartika No.25A-25C , Kel.Cipayung , Kec.Ciputat , Tangerang Selatan"}, {"detail": null, "name": "Tangerang - Pondok Cabe", "address": "Ruko Mutiara Pondok Cabe Blok C-15 , Tangerang Selatan"}, {"detail": null, "name": "Tangerang - Pamulang Permai", "address": "Jl. Pamulang Permai 1 Blok SH 18 No.10 , Kel.Pamulang Barat , Kec.Pamulang , Tangerang"}, {"detail": null, "name": "Tangerang - Serpong", "address": "Ruko Tol Boulevard Blok D No 27 -28 , Jl. Pahlawan Seribu , Tangerang"}, {"detail": {"kelurahan": "Braga", "longitude": 107.609715, "formattedAddr": "Jl. Lembong No.7, Braga, Sumur Bandung, Kota Bandung, Jawa Barat 40111, Indonesia", "latitude": -6.9163657, "provinsi": "Jawa Barat", "kecamatan": "Sumur Bandung", "kota": "Kota Bandung"}, "name": "Bandung - Lembong", "address": "Jl. Lembong No. 7 , Kel.Braga , Kec.Sumur Bandung , Bandung"}, {"detail": {"kelurahan": "Cigereleng", "longitude": 107.608396, "formattedAddr": "Jl. Moch. Toha No.191, Cigereleng, Regol, Kota Bandung, Jawa Barat 40243, Indonesia", "latitude": -6.944577, "provinsi": "Jawa Barat", "kecamatan": "Regol", "kota": "Kota Bandung"}, "name": "Bandung - Moch Toha", "address": "Jl. Moch. Toha No. 191 , Kel.Regol , Kec.Cigereleng , Bandung"}, {"detail": {"kelurahan": "Lebak Siliwangi", "longitude": 107.6135485, "formattedAddr": "Jl. Ir. H.Djuanda No.165, Lb. Siliwangi, Coblong, Kota Bandung, Jawa Barat 40132, Indonesia", "latitude": -6.8879027, "provinsi": "Jawa Barat", "kecamatan": "Coblong", "kota": "Kota Bandung"}, "name": "Bandung - Dago", "address": "Jl. Ir. H. Juanda No. 165 , Kel.Lebak Siliwangi , Kec.Coblong , Bandung"}, {"detail": {"kelurahan": "Babakan Ciamis", "longitude": 107.610598, "formattedAddr": "Jl. Merdeka No.52, Babakan Ciamis, Sumur Bandung, Kota Bandung, Jawa Barat 40117, Indonesia", "latitude": -6.909156299999999, "provinsi": "Jawa Barat", "kecamatan": "Sumur Bandung", "kota": "Kota Bandung"}, "name": "Bandung - Merdeka", "address": "Jl. Merdeka No. 52 , Kel.Merdeka , Kec.Sumur Bandung , Bandung"}, {"detail": {"kelurahan": "Merdeka", "longitude": 107.6267054, "formattedAddr": "Jl. RE. Martadinata No.134, Merdeka, Sumur Bandung, Kota Bandung, Jawa Barat 40113, Indonesia", "latitude": -6.9109834, "provinsi": "Jawa Barat", "kecamatan": "Sumur Bandung", "kota": "Kota Bandung"}, "name": "Bandung - Riau", "address": "Jl. Re Martadinata No. 134 , Bandung"}, {"detail": {"kelurahan": "Sukawarna", "longitude": 107.5813734, "formattedAddr": "Jl. Surya Sumantri No.8 E, Sukawarna, Sukajadi, Kota Bandung, Jawa Barat 40164, Indonesia", "latitude": -6.881902800000001, "provinsi": "Jawa Barat", "kecamatan": "Sukajadi", "kota": "Kota Bandung"}, "name": "Bandung - Surya Sumantri", "address": "Jl. Surya Sumantri No. 8 E , Kel.Sukawarna , Kec.Sukajadi , Bandung"}, {"detail": {"kelurahan": "Burangrang", "longitude": 107.6179427, "formattedAddr": "Wisma Cimb Niaga, Jl. Jendral Gatot Subroto No.2, Burangrang, Lengkong, Kota Bandung, Jawa Barat 40262, Indonesia", "latitude": -6.9228375, "provinsi": "Jawa Barat", "kecamatan": "Lengkong", "kota": "Kota Bandung"}, "name": "Bandung - Asia Afrika", "address": "Wisma Cimb Niaga , Jl. Jend Gatot Subroto No. 2 , Bandung"}, {"detail": {"kelurahan": "Cibadak", "longitude": 107.5994509, "formattedAddr": "Jl. Astana Anyar No.115, Cibadak, Astanaanyar, Kota Bandung, Jawa Barat 40241, Indonesia", "latitude": -6.9255532, "provinsi": "Jawa Barat", "kecamatan": "Astanaanyar", "kota": "Kota Bandung"}, "name": "Bandung - Astana Anyar", "address": "Jl. Astana Anyar No. 115 , Kel.Cibadak , Kec.Astana Anyar , Bandung"}, {"detail": {"kelurahan": "Cicaheum", "longitude": 107.6485889, "formattedAddr": "Ruko Lucky Town, Jl. Ters. Jkt No.30E, 07, Cicaheum, Kiaracondong, Kota Bandung, Jawa Barat 40281, Indonesia", "latitude": -6.9130262, "provinsi": "Jawa Barat", "kecamatan": "Kiaracondong", "kota": "Kota Bandung"}, "name": "Bandung - Ahmad Yani", "address": "Ruko Lucky Plaza , Jl. Terusan Jakarta No. 77 H , Bandung"}, {"detail": {"kelurahan": "Kebon Jeruk", "longitude": 107.6043012, "formattedAddr": "Jl. Otto Iskandar Dinata No.102, Kb. Jeruk, Andir, Kota Bandung, Jawa Barat 40181, Indonesia", "latitude": -6.9181642, "provinsi": "Jawa Barat", "kecamatan": "Andir", "kota": "Kota Bandung"}, "name": "Bandung - Otista", "address": "Jl. Otto Iskandar Dinata No. 102 , Kel.Kebon Jeruk , Kec.Andir , Bandung"}, {"detail": {"kelurahan": "Kertamulya", "longitude": 107.4855336, "formattedAddr": "Jl. Raya Padalarang No.519, Kertamulya, Padalarang, Kabupaten Bandung Barat, Jawa Barat 40553, Indonesia", "latitude": -6.843334, "provinsi": "Jawa Barat", "kecamatan": "Padalarang", "kota": "Kabupaten Bandung Barat"}, "name": "Bandung - Padalarang", "address": "Jl. Raya Padalarang No. 519 , Kel.Kertamulya , Kec. Padalarang , Bandung Barat"}, {"detail": null, "name": "Bandung - Kota Baru Parahyangan", "address": "Ruko Tatar Pitaloka , Jl. Pitaniaga No. 6, Tatar Pitaloka, Kota Baru Parahyangan , Bandung Barat"}, {"detail": {"kelurahan": "Situsaeur", "longitude": 107.5999829, "formattedAddr": "Jl. Peta No.65, Situsaeur, Bojongloa Kidul, Kota Bandung, Jawa Barat 40234, Indonesia", "latitude": -6.9374493, "provinsi": "Jawa Barat", "kecamatan": "Bojongloa Kidul", "kota": "Kota Bandung"}, "name": "Bandung - Lingkar Selatan", "address": "Jl. Peta No. 65 , Bandung"}, {"detail": {"kelurahan": "Maleber", "longitude": 107.5724987, "formattedAddr": "Jl. Rajawali Barat No.65, Maleber, Andir, Kota Bandung, Jawa Barat 40184, Indonesia", "latitude": -6.911609299999999, "provinsi": "Jawa Barat", "kecamatan": "Andir", "kota": "Kota Bandung"}, "name": "Bandung - Rajawali", "address": "Jl. Rajawali Barat No. 65 , Kel.Maleber , Kec.Andir , Bandung"}, {"detail": {"kelurahan": "Sayati", "longitude": 107.5770478, "formattedAddr": "Jl. Kopo Bihbul No.94, Sayati, Margahayu, Bandung, Jawa Barat 40228, Indonesia", "latitude": -6.966138, "provinsi": "Jawa Barat", "kecamatan": "Margahayu", "kota": "Bandung"}, "name": "Bandung - Kopo Bihbul", "address": "Jl. Kopo Bihbul No. 94 , Kel.Sayati , Kec.Margahayu , Bandung"}, {"detail": {"kelurahan": "Babakan", "longitude": 107.5780091, "formattedAddr": "Jl. Soekarno Hatta No.132, Babakan, Babakan Ciparay, Kota Bandung, Jawa Barat 40222, Indonesia", "latitude": -6.935248, "provinsi": "Jawa Barat", "kecamatan": "Babakan Ciparay", "kota": "Kota Bandung"}, "name": "Bandung - Sumber Sari", "address": "Jl. Soekarno Hatta No. 132 A , Kel.Babakan , Kec.Babakan Ciparay , Bandung"}, {"detail": {"kelurahan": "Isola", "longitude": 107.5958723, "formattedAddr": "Jl. Setiabudhi No.57, Isola, Sukasari, Kota Bandung, Jawa Barat 40154, Indonesia", "latitude": -6.8548528, "provinsi": "Jawa Barat", "kecamatan": "Sukasari", "kota": "Kota Bandung"}, "name": "Bandung - Setiabudi", "address": "Jl. Setiabudi No. 57 , Kel.Sukasari , Kec.Gegerkalong , Bandung"}, {"detail": {"kelurahan": "Lembang", "longitude": 107.6222416, "formattedAddr": "Jl. Raya Lembang No.274, Lembang, Kabupaten Bandung Barat, Jawa Barat 40391, Indonesia", "latitude": -6.8142118, "provinsi": "Jawa Barat", "kecamatan": "Lembang", "kota": "Kabupaten Bandung Barat"}, "name": "Bandung - Lembang", "address": "Jl. Raya Lembang No. 274 , Lembang"}, {"detail": {"kelurahan": "Arjuna", "longitude": 107.5951245, "formattedAddr": "Jl. Pajajaran No.85, Arjuna, Cicendo, Kota Bandung, Jawa Barat 40172, Indonesia", "latitude": -6.9068346, "provinsi": "Jawa Barat", "kecamatan": "Cicendo", "kota": "Kota Bandung"}, "name": "Bandung - Pajajaran", "address": "Jl. Pajajaran No. 85 , Kel.Arjuna , Kec.Cicendo , Bandung"}, {"detail": null, "name": "Jakarta - Cibubur Citra Grand", "address": "Ruko Citra Grand , Jl. Alternatif Cibubur , Bekasi"}, {"detail": null, "name": "Jakarta - Pondok Gede", "address": "Ruko Pondok Gede Blok H 11-12 , Jl. Raya Pondok Gede No 1 , Bekasi"}, {"detail": null, "name": "Bekasi - Jati Asih", "address": "Ruko Blok 27F , Jl. Raya Jatiasih No.27 , Bekasi"}, {"detail": null, "name": "Bekasi - Taman Harapan Indah", "address": "Komp. Sentra Niaga , Jl. Bulevar Hijau Blok SN No. 6 , Bekasi"}, {"detail": {"kelurahan": "Kayuringin Jaya", "longitude": 106.9826505, "formattedAddr": "Jl. Pipit II, Kayuringin Jaya, Bekasi Sel., Kota Bks, Jawa Barat 17144, Indonesia", "latitude": -6.236131599999999, "provinsi": "Jawa Barat", "kecamatan": "Bekasi Selatan", "kota": "Kota Bekasi"}, "name": "Bekasi - Bekasi Barat", "address": "Jl. KH Noer Ali No.12-12A , Kel.Kayuringin Jaya , Kec.Bekasi Selatan , Bekasi"}, {"detail": {"kelurahan": "Jatibening", "longitude": 106.9436967, "formattedAddr": "Ruko Jati Bening, Jalan Kemang Raya, Jatibening, Pondokgede, Kota Bks, Jawa Barat 17413, Indonesia", "latitude": -6.2667533, "provinsi": "Jawa Barat", "kecamatan": "Pondokgede", "kota": "Kota Bekasi"}, "name": "Bekasi - Jatibening", "address": "Ruko Jatibening , Jl. Caman Raya 168D , Bekasi"}, {"detail": null, "name": "Bekasi - Juanda", "address": "Ruko Mustika Pura Blok A , Jl. Ir.H.Juanda No.137 , Bekasi"}, {"detail": null, "name": "Bekasi - Metropolitan Mall", "address": "Mall Metropolitan Lt1 No.24 , Jl. Raya Kalimalang , Bekasi"}, {"detail": {"kelurahan": "Margahayu", "longitude": 107.0166796, "formattedAddr": "c, Ruko Kalimas, Jl. Chairil Anwar No.3, Margahayu, Bekasi Tim., Kota Bks, Jawa Barat 17113, Indonesia", "latitude": -6.2599198, "provinsi": "Jawa Barat", "kecamatan": "Bekasi Timur", "kota": "Kota Bekasi"}, "name": "Bekasi - Bekasi Timur", "address": "Ruko Kalimas Kav. No.C-33 , Jl. Chairil Anwar , Bekasi"}, {"detail": null, "name": "Bekasi - Ahmad Yani", "address": "Ruko Sentra Niaga Kalimalang Blok A-8 No 15 , Jl. Ahmad Yani , Bekasi"}, {"detail": null, "name": "Bekasi - Kemang Pratama", "address": "Ruko Kemang Pratama , Jl. Kemang Pratama Blok MM-21F , Bekasi"}, {"detail": null, "name": "Bekasi - Lippo Cikarang", "address": "Menara Cimb Niaga , Jl. MH Thamrin Kav 107 , Kel. Cibatu , Kec. Lemah Abang , Cikarang-Bekasi"}, {"detail": null, "name": "Bekasi - Cikarang", "address": "Ruko Plaza Menteng, Blok C No. 1 , Jl. Mh Thamrin , Cikarang- Bekasi"}, {"detail": null, "name": "Bekasi - Jababeka", "address": "Capitol Business Park, Cikarang Baru - Kawasan Jababeka , Jl. Niaga Raya Unit 2O & 2P , Cikarang Bekasi"}, {"detail": null, "name": "Bekasi - Mega Mall Cikarang", "address": "Ruko Bekasi Fajar Blok B 1-2 Cibitung Center Kawasan Industri Mm 2100 , Cibitung - Bekasi"}, {"detail": null, "name": "Bekasi - Samsung", "address": "Samsung Electronic Indonesia , Jl. Jababeka Raya Blok F 29-33 , Cikarang - Bekasi"}, {"detail": null, "name": "Bekasi - LG Cibitung", "address": "Kawasan Industri MM2100 , Jl. Jawa Blok G , Cikarang - Bekasi"}, {"detail": null, "name": "Bekasi - Cikarang Hankook", "address": "PT Hankook Tire Indonesia , Jl. Kenari Raya Blok G3 No.1 Delta Silicon 5 , Cikarang - Bekasi"}, {"detail": null, "name": "Bogor - Cibubur Kota Wisata", "address": "Kota Wisata Cibubur, Boulevard Kota Wisata, Komp. Ruko Sentra Eropa, Type Ruko Travalgar Square Blok SE G No.1 & 2 , , Bogor"}, {"detail": {"kelurahan": "Pabaton", "longitude": 106.7935229, "formattedAddr": "Jl. Ir. H. Juanda No.12, Pabaton, Bogor Tengah, Kota Bogor, Jawa Barat 16121, Indonesia", "latitude": -6.596057999999999, "provinsi": "Jawa Barat", "kecamatan": "Bogor Tengah", "kota": "Kota Bogor"}, "name": "Bogor - Juanda", "address": "Jl. Ir. H. Juanda No. 12, Bogor , Kel.Pabaton , Kec.Bogor Tengah , Bogor"}, {"detail": {"kelurahan": "Gudang", "longitude": 106.8022359, "formattedAddr": "Jl. Suryakencana No.196A, Gudang, Bogor Tengah, Kota Bogor, Jawa Barat 16123, Indonesia", "latitude": -6.608056899999999, "provinsi": "Jawa Barat", "kecamatan": "Bogor Tengah", "kota": "Kota Bogor"}, "name": "Bogor - Suryakencana", "address": "Jl. Suryakencana No. 196 A, Bogor , Kel.Gudang , Kec.Bogor Tengah , Bogor"}, {"detail": null, "name": "Plaza Niaga Sentul", "address": "Plaza niaga sentul 1 blok a no.1 sentul city"}, {"detail": {"kelurahan": "Babakan", "longitude": 106.8045557, "formattedAddr": "Jl. Padjadjaran No.33, Babakan, Bogor Tengah, Kota Bogor, Jawa Barat 16122, Indonesia", "latitude": -6.5973619, "provinsi": "Jawa Barat", "kecamatan": "Bogor Tengah", "kota": "Kota Bogor"}, "name": "Bogor - Padjajaran", "address": "Jl. Pajajaran No.33 , Kel.Babakan , Kec.Bogor Tengah , Bogor"}, {"detail": {"kelurahan": "Bantarjati", "longitude": 106.8084978, "formattedAddr": "1, Ruko Wr. Jambu, Jl. Padjadjaran, Bantarjati, Bogor Utara, Kota Bogor, Jawa Barat 16153, Indonesia", "latitude": -6.569585699999999, "provinsi": "Jawa Barat", "kecamatan": "Bogor Utara", "kota": "Kota Bogor"}, "name": "Bogor - V Point", "address": "Ruko V' Point Blok ZA , Jl. Pajajaran No.1 , Bogor"}, {"detail": null, "name": "Bogor - Indah Plaza", "address": "Pertokoan Bogor Indah Plaza Blok C , Jl. Baru No. 3 , Bogor"}, {"detail": {"kelurahan": "Cirimekar", "longitude": 106.8589954, "formattedAddr": "Jl. Raya Mayor Oking No.27, Cirimekar, Cibinong, Bogor, Jawa Barat 16917, Indonesia", "latitude": -6.4686715, "provinsi": "Jawa Barat", "kecamatan": "Cibinong", "kota": "Bogor"}, "name": "Cibinong - Mayor Oking", "address": "Jl. Mayor Oking No.27 Cibinong , Kel.Ciri Mekar , Kec.Cibinong , Bogor"}, {"detail": null, "name": "Bogor - Cisalak", "address": "Jl. Raya Jakarta Bogor Km 31,5 , Kel.Cisalak , Kec.Cimanggis , Depok"}, {"detail": {"kelurahan": "Cileungsi Kidul", "longitude": 106.9617659, "formattedAddr": "Jl. Raya Narogong, Cileungsi Kidul, Cileungsi, Bogor, Jawa Barat 16820, Indonesia", "latitude": -6.411376499999999, "provinsi": "Jawa Barat", "kecamatan": "Cileungsi", "kota": "Bogor"}, "name": "Bogor - Cileungsi", "address": "Jl. Raya Narogong , Kel.Cileungsi Kidul , Kec.Cileungsi , Bogor"}, {"detail": {"kelurahan": "Karang Asem Barat", "longitude": 106.8699114, "formattedAddr": "Jl. Raya Mayor Oking No.19, Karang Asem Bar., Citeureup, Bogor, Jawa Barat 16810, Indonesia", "latitude": -6.482503599999999, "provinsi": "Jawa Barat", "kecamatan": "Citeureup", "kota": "Bogor"}, "name": "Bogor - Citeureup", "address": "Jl. Mayor Oking No 19 - 20 , Kel.Karang Asem Barat , Kec.Citeureup , Bogor"}, {"detail": {"kelurahan": "Muka", "longitude": 107.1448987, "formattedAddr": "Jl. HOS Cokroaminoto, Muka, Kec. Cianjur, Kabupaten Cianjur, Jawa Barat 43215, Indonesia", "latitude": -6.8132511, "provinsi": "Jawa Barat", "kecamatan": "Kecamatan Cianjur", "kota": "Kabupaten Cianjur"}, "name": "Cianjur - Cokroaminoto", "address": "Jl. Hos Cokroaminoto No. 102 , Kel.Muka , Kec.Cianjur , Cianjur"}, {"detail": null, "name": "Cianjur - Cipanas", "address": "Jl. Raya Cipanas No. 32 , Kel. Gadog , Kec.Pacet , Cipanas"}, {"detail": {"kelurahan": "Cimahi", "longitude": 107.5446265, "formattedAddr": "Jl. Raya Tagog No.256, Cimahi, Cimahi Tengah, Kota Cimahi, Jawa Barat 40523, Indonesia", "latitude": -6.875089999999999, "provinsi": "Jawa Barat", "kecamatan": "Cimahi Tengah", "kota": "Kota Cimahi"}, "name": "Cimahi - Raya Tagog", "address": "Jl. Raya Tagog No. 256 , Kel.Cimahi , Kec.Cimahi Tengah , Cimahi"}, {"detail": {"kelurahan": "Sukaraja", "longitude": 107.5720123, "formattedAddr": "Jl. Dakota No.109, Sukaraja, Cicendo, Kota Bandung, Jawa Barat 40175, Indonesia", "latitude": -6.8909204, "provinsi": "Jawa Barat", "kecamatan": "Cicendo", "kota": "Kota Bandung"}, "name": "Cimahi - Borma Dakota", "address": "Jl. Dakota Raya No. 109 , Kel. Sukaraja , Kec.Cicendo , Bandung"}, {"detail": {"kelurahan": "Lemahwungkuk", "longitude": 108.5724524, "formattedAddr": "Jl. Yos Sudarso No.26, Lemahwungkuk, Kota Cirebon, Jawa Barat 45111, Indonesia", "latitude": -6.7219184, "provinsi": "Jawa Barat", "kecamatan": "Lemahwungkuk", "kota": "Kota Cirebon"}, "name": "Cirebon - Yos Sudarso", "address": "Jl. Yos Sudarso No. 26 , Kel.Lemahwungkuk , Kec.Lemahwungkuk , Cirebon"}, {"detail": null, "name": "Cirebon - Balong Indah Plaza", "address": "Balong Indah Plaza , Jl. Pekiringan No. 166 , Cirebon"}, {"detail": {"kelurahan": "Jatibarang", "longitude": 108.3025604, "formattedAddr": "Jl. Mayor Dasuki No.24, Jatibarang, Kabupaten Indramayu, Jawa Barat 45273, Indonesia", "latitude": -6.471976499999999, "provinsi": "Jawa Barat", "kecamatan": "Jatibarang", "kota": "Kabupaten Indramayu"}, "name": "Cirebon - Jatibarang", "address": "Jl. Mayor Dasuki No.24 , Kel.Jatibarang , Kec.Jatibarang , Indramayu"}, {"detail": {"kelurahan": "Kuningan", "longitude": 108.484697, "formattedAddr": "Jalan Siliwangi, Kuningan, Kec. Kuningan, Kabupaten Kuningan, Jawa Barat 45511, Indonesia", "latitude": -6.976797599999999, "provinsi": "Jawa Barat", "kecamatan": "Kecamatan Kuningan", "kota": "Kabupaten Kuningan"}, "name": "Cirebon - Kuningan", "address": "Jl. Siliwangi No. 92 , Kel.Kuningan , Kec.Kuningan , Kuningan"}, {"detail": null, "name": "Cirebon - Losari", "address": "Jl. Raya Losari Barat No. 136 , Kel.Losari Kidul , Kec.Losari , Cirebon"}, {"detail": {"kelurahan": "Kebonbaru", "longitude": 108.5600855, "formattedAddr": "Jl. Siliwangi No.110, Kebonbaru, Kejaksan, Kota Cirebon, Jawa Barat 45121, Indonesia", "latitude": -6.710046999999999, "provinsi": "Jawa Barat", "kecamatan": "Kejaksan", "kota": "Kota Cirebon"}, "name": "Cirebon - Siliwangi", "address": "Jl. Siliwangi No. 110 , Kel.Kejaksan , Kec.Kejaksan , Cirebon"}, {"detail": {"kelurahan": "Weru Kidul", "longitude": 108.5072773, "formattedAddr": "Jl. Fatahillah No.24, Weru Kidul, Weru, Cirebon, Jawa Barat 45154, Indonesia", "latitude": -6.706067699999999, "provinsi": "Jawa Barat", "kecamatan": "Weru", "kota": "Cirebon"}, "name": "Cirebon - Plered", "address": "Jl. Raya Plered No. 24 , Kel.Weru Kidul , Kec.Weru , Cirebon"}, {"detail": null, "name": "Cirebon - RS Putra Bahagia", "address": "Rs Putra Bahagia , Jl. Ciremai Raya No. 114 , Cirebon"}, {"detail": {"kelurahan": "Meruyung", "longitude": 106.7631364, "formattedAddr": "Jl. Cinere Residence No.3, Meruyung, Limo, Kota Depok, Jawa Barat 16514, Indonesia", "latitude": -6.375489099999999, "provinsi": "Jawa Barat", "kecamatan": "Limo", "kota": "Kota Depok"}, "name": "Jakarta - Cinere", "address": "Jl. Cinere Raya No. 3 H-3I , Kel.Cinere , Kec.Limo , Depok"}, {"detail": {"kelurahan": "Kemiri Muka", "longitude": 106.8298259, "formattedAddr": "Jl. Margonda Raya No.243, Kemiri Muka, Beji, Kota Depok, Jawa Barat 16423, Indonesia", "latitude": -6.3818307, "provinsi": "Jawa Barat", "kecamatan": "Beji", "kota": "Kota Depok"}, "name": "Depok - Margonda", "address": "Jl. Margonda Raya No 243 , Kel.Kemiri Muka , Kec.Beji , Depok"}, {"detail": null, "name": "Depok - FE Universitas Indonesia", "address": "Fakultas Ekonomi Universitas Indonesia , Jl. Prof. Dr Sumitro Djoyohadikusumo , Depok"}, {"detail": {"kelurahan": "Pakuwon", "longitude": 107.9042083, "formattedAddr": "Jl. Jend. A. Yani No.29, Pakuwon, Garut Kota, Kabupaten Garut, Jawa Barat 44117, Indonesia", "latitude": -7.2157829, "provinsi": "Jawa Barat", "kecamatan": "Garut Kota", "kota": "Kabupaten Garut"}, "name": "Garut - Ahmad Yani", "address": "Jl. Jend. Ahmad Yani No. 29 , Garut"}, {"detail": {"kelurahan": "Pakuwon", "longitude": 107.9042083, "formattedAddr": "Jl. Jend. A. Yani No.29, Pakuwon, Garut Kota, Kabupaten Garut, Jawa Barat 44117, Indonesia", "latitude": -7.2157829, "provinsi": "Jawa Barat", "kecamatan": "Garut Kota", "kota": "Kabupaten Garut"}, "name": "Garut - Ahmad Yani", "address": "Jl. Jend. Ahmad Yani No. 29 , Garut"}, {"detail": null, "name": "Karawang - Sentra KIIC", "address": "Sentra KIIC , Jl. Permata Raya, Lot C \u2013 A1 , Karawang"}, {"detail": {"kelurahan": "Nagri Kaler", "longitude": 107.4452777, "formattedAddr": "Jl. Veteran No.83, Nagri Kaler, Kec. Purwakarta, Kabupaten Purwakarta, Jawa Barat 41115, Indonesia", "latitude": -6.5339331, "provinsi": "Jawa Barat", "kecamatan": "Kecamatan Purwakarta", "kota": "Kabupaten Purwakarta"}, "name": "Purwakarta - Veteran", "address": "Jl. Veteran No. 83 , Kel.Nagrikaler , Kec.Purwakarta , Purwakarta"}, {"detail": {"kelurahan": "Cikole", "longitude": 106.9340436, "formattedAddr": "Jl. R. E. Martadinata No.72, Cikole, Kota Sukabumi, Jawa Barat 43113, Indonesia", "latitude": -6.920702599999999, "provinsi": "Jawa Barat", "kecamatan": "Cikole", "kota": "Kota Sukabumi"}, "name": "Sukabumi - Martadinata", "address": "Jl. RE. Martadinata No. 72 , Kel.Kebonjati , Kec.Cikole , Sukabumi"}, {"detail": {"kelurahan": "Tipar", "longitude": 106.9302874, "formattedAddr": "Jl. Tipar Gede, Tipar, Citamiang, Kota Sukabumi, Jawa Barat 43141, Indonesia", "latitude": -6.9256823, "provinsi": "Jawa Barat", "kecamatan": "Citamiang", "kota": "Kota Sukabumi"}, "name": "Sukabumi - Ruko Tipar", "address": "Jl. Tipar Gede No. 2,4,6 , Kel.Tipar , Kec. Citamiang , Sukabumi"}, {"detail": {"latitude": -6.875633199999999, "formattedAddr": "Jl. Surya Kencana, Indonesia", "longitude": 106.7758875}, "name": "Sukabumi - Cibadak", "address": "Jl. Suryakencana No. 24-26 , Kel.Cibadak , Kec.Cibadak , Sukabumi"}, {"detail": {"kelurahan": "Kotakaler", "longitude": 107.9247172, "formattedAddr": "Jl. Mayor Abdurahman No.63, Kotakaler, Sumedang Utara, Kabupaten Sumedang, Jawa Barat 45621, Indonesia", "latitude": -6.844409199999999, "provinsi": "Jawa Barat", "kecamatan": "Sumedang Utara", "kota": "Kabupaten Sumedang"}, "name": "Sumedang - Abdurachman", "address": "Jl. Mayor Abdurachman No. 63 , Kel.Kota Kaler , Kec.Sumedang Utara , Sumedang"}, {"detail": {"kelurahan": "Yudanagara", "longitude": 108.2165076, "formattedAddr": "Jl. Yudanegara No.61, Yudanagara, Cihideung, Tasikmalaya, Jawa Barat 46121, Indonesia", "latitude": -7.3257509, "provinsi": "Jawa Barat", "kecamatan": "Cihideung", "kota": "Tasikmalaya"}, "name": "Tasikmalaya - Yudanegara", "address": "Jl. Yudanegara No. 61 , Kel.Yudanagara , Kec.Cihideung , Tasikmalaya"}, {"detail": null, "name": "Tasikmalaya - HZ Mustofa", "address": "Jl. Hz Mustofa No. 318 , Kel.Tugu Jaya , Kec.Cihideung , Tasikmalaya"}, {"detail": null, "name": "Tasikmalaya - Pasar Cikurubuk", "address": "Komp. Ps Cikurubuk , Jl. Residen Ardiwinangun Blok II/15 , Tasikmalaya"}, {"detail": null, "name": "Bandung - Lembong", "address": "Jl. Lembong No. 7"}, {"detail": {"kelurahan": "Sutawinangun", "longitude": 108.5465575, "formattedAddr": "Jl. Tuparev No.41, Sutawinangun, Kedawung, Cirebon, Jawa Barat 45153, Indonesia", "latitude": -6.7116487, "provinsi": "Jawa Barat", "kecamatan": "Kedawung", "kota": "Cirebon"}, "name": "Cirebon - Tuparev", "address": "Jl. Tuparev No. 41A , Kel. Sutawinangun , Kec. Kedawung , Cirebon"}, {"detail": null, "name": "Bogor - Pajajaran", "address": "Ruko Pajajaran , Jl. Pajajaran No. 70 F , Bogor"}, {"detail": {"kelurahan": "Sokanegara", "longitude": 109.2313379, "formattedAddr": "Jl. Jenderal Sudirman No.417, Sokanegara, Purwokerto Tim., Kabupaten Banyumas, Jawa Tengah 53116, Indonesia", "latitude": -7.425320999999999, "provinsi": "Jawa Tengah", "kecamatan": "Purwokerto Timur", "kota": "Kabupaten Banyumas"}, "name": "Purwokerto - Sudirman 417", "address": "Jl. Jend. Sudirman No. 417 , Kel.Purwanegara , Kec.Purwokerto Timur , Banyumas"}, {"detail": null, "name": "Brebes - Dipenogoro", "address": "Jl. Diponegoro No. 56 , Kel.Brebes , Kec.Brebes , Brebes"}, {"detail": {"kelurahan": "Sidanegara", "longitude": 109.0143395, "formattedAddr": "Jl. Jend. Sudirman No.20, Sidanegara, Cilacap Tengah, Kabupaten Cilacap, Jawa Tengah 53211, Indonesia", "latitude": -7.727326499999999, "provinsi": "Jawa Tengah", "kecamatan": "Cilacap Tengah", "kota": "Kabupaten Cilacap"}, "name": "Cilacap - Sudirman", "address": "Jl. Jend Sudirman No. 20 , Kel.Sidanegara , Kec.Cilacap Tengah , Cilacap"}, {"detail": null, "name": "Demak - Bintoro", "address": "Ruko Bintoro No. 13 , Jl. Sultan Fatah , Demak"}, {"detail": {"kelurahan": "Purwodadi", "longitude": 110.9165415, "formattedAddr": "Jl. S. Parman No.1, Purwodadi, Kabupaten Grobogan, Jawa Tengah 58111, Indonesia", "latitude": -7.0832282, "provinsi": "Jawa Tengah", "kecamatan": "Purwodadi", "kota": "Kabupaten Grobogan"}, "name": "Grobogan - Purwodadi", "address": "Jl. S. Parman No. 1 , Kel.Purwodadi , Kec.Purwodadi , Purwodadi"}, {"detail": {"kelurahan": "Jobokuto", "longitude": 110.6646838, "formattedAddr": "Jl. Diponegoro, Jobokuto, Kec. Jepara, Kabupaten Jepara, Jawa Tengah, Indonesia", "latitude": -6.589195699999999, "provinsi": "Jawa Tengah", "kecamatan": "Kecamatan Jepara", "kota": "Kabupaten Jepara"}, "name": "Jepara - Diponegoro", "address": "Jl. Diponegoro No. 91 , Kel.Jobokuto , Kec.Jepara , Jepara"}, {"detail": {"kelurahan": "Banaran", "longitude": 110.6016118, "formattedAddr": "Jl. Pandanaran No.84, Banaran, Kec. Boyolali, Kabupaten Boyolali, Jawa Tengah 57313, Indonesia", "latitude": -7.528934199999999, "provinsi": "Jawa Tengah", "kecamatan": "Kecamatan Boyolali", "kota": "Kabupaten Boyolali"}, "name": "Boyolali - Pandanaran", "address": "Jl. Pandanaran No.84 , Kel.Banaran , Kec.Boyolali , Boyolali"}, {"detail": {"kelurahan": "Sokanegara", "longitude": 109.2313379, "formattedAddr": "Jl. Jenderal Sudirman No.605, Sokanegara, Purwokerto Tim., Kabupaten Banyumas, Jawa Tengah 53116, Indonesia", "latitude": -7.425320999999999, "provinsi": "Jawa Tengah", "kecamatan": "Purwokerto Timur", "kota": "Kabupaten Banyumas"}, "name": "Purwokerto - Sudirman 605", "address": "Jl. Jend. Sudirman 605 , Kec.Purwokerto Timur , Banyumas"}, {"detail": null, "name": "Banyumas - Ajibarang", "address": "Ruko Pasar No 5 , Jl. Raya Pancasan , Banyumas"}, {"detail": {"kelurahan": "Kroya", "longitude": 109.2491517, "formattedAddr": "Jl. Jend. A. Yani, Kroya, Kabupaten Cilacap, Jawa Tengah 53282, Indonesia", "latitude": -7.6320334, "provinsi": "Jawa Tengah", "kecamatan": "Kroya", "kota": "Kabupaten Cilacap"}, "name": "Cilacap - Kroya", "address": "Jl. Ahmad Yani No 8 , Kel.Kroya , Kec.Kroya , Cilacap"}, {"detail": {"kelurahan": "Kebumen", "longitude": 109.6558281, "formattedAddr": "Jl. Pahlawan No.120, Kebumen, Kec. Kebumen, Kabupaten Kebumen, Jawa Tengah 54311, Indonesia", "latitude": -7.6701839, "provinsi": "Jawa Tengah", "kecamatan": "Kecamatan Kebumen", "kota": "Kabupaten Kebumen"}, "name": "Kebumen - Pahlawan", "address": "Jl. Pahlawan No.120 , Kel.Kebumen , Kec.Kebumen , Kebumen"}, {"detail": null, "name": "Kebumen - Gombong", "address": "Kompleks Pasar Wonokriyo Blok A No.27 , Jl. Yos Sudarso No.182 , Kebumen"}, {"detail": {"kelurahan": "Tonggalan", "longitude": 110.5947797, "formattedAddr": "Jl. Pemuda, Tonggalan, Klaten Tengah, Kabupaten Klaten, Jawa Tengah, Indonesia", "latitude": -7.7119269, "provinsi": "Jawa Tengah", "kecamatan": "Klaten Tengah", "kota": "Kabupaten Klaten"}, "name": "Klaten - Pemuda", "address": "Jl. Pemuda No. 234 , Kel.Tonggalan , Kec.Klaten Tengah , Klaten"}, {"detail": null, "name": "Kudus - Agil Kusumadya", "address": "Jl. Agil Kusumadya No. 5 A , Kel.Jati , Kec.Jati , Kudus"}, {"detail": {"kelurahan": "Panjunan", "longitude": 110.838593, "formattedAddr": "Jl. Jend. A. Yani, Panjunan, Kota Kudus, Kabupaten Kudus, Jawa Tengah 59317, Indonesia", "latitude": -6.816299000000001, "provinsi": "Jawa Tengah", "kecamatan": "Kota Kudus", "kota": "Kabupaten Kudus"}, "name": "Kudus - Ahmad Yani", "address": "Jl. A.Yani No. 31 , Kel.Panjunan , Kec.Kudus Kota , Kudus"}, {"detail": null, "name": "Magelang - Rejotumoto", "address": "Jl. Tidar Rejotumoto No. 16 , Kel.Tidar Selatan , Kec.Magelang Selatan , Magelang"}, {"detail": null, "name": "Magelang - Tentara Pelajar", "address": "Komplek Pertokoan Metro Square Ruko F No. 18 Mertoyudan"}, {"detail": null, "name": "Magelang - Muntilan", "address": "Ruko No. A II/4 , Jl. Pemuda , Magelang"}, {"detail": {"kelurahan": "Kauman", "longitude": 111.147903, "formattedAddr": "Jl. Silugonggo, Kauman, Juwana, Kabupaten Pati, Jawa Tengah 59185, Indonesia", "latitude": -6.718289, "provinsi": "Jawa Tengah", "kecamatan": "Juwana", "kota": "Kabupaten Pati"}, "name": "Pati - Juwana", "address": "Jl. Silugonggo 12 A , Kel.Kauman , Kec.Juwana , Pati"}, {"detail": {"kelurahan": "Puri", "longitude": 111.0232534, "formattedAddr": "Jl. P.Sudirman No.89, Puri, Kec. Pati, Kabupaten Pati, Jawa Tengah 59113, Indonesia", "latitude": -6.7540223, "provinsi": "Jawa Tengah", "kecamatan": "Kecamatan Pati", "kota": "Kabupaten Pati"}, "name": "Pati - Sudirman", "address": "Jl. Jend. Sudirman 89 , Kel.Patilor , Kec.Pati , Pati"}, {"detail": {"kelurahan": "Bendan", "longitude": 109.6692428, "formattedAddr": "Jl. Hayam Wuruk No.3, Bendan, Pekalongan Bar., Kota Pekalongan, Jawa Tengah 51119, Indonesia", "latitude": -6.8886642, "provinsi": "Jawa Tengah", "kecamatan": "Pekalongan Barat", "kota": "Kota Pekalongan"}, "name": "Pekalongan - Hayam Wuruk", "address": "Jl. Hayam Wuruk No. 3 , Kel.Bendan , Kec.Pekalongan Barat , Pekalongan"}, {"detail": {"kelurahan": "Sampangan", "longitude": 109.6754463, "formattedAddr": "Jalan. Sultan Agung No.36, Sampangan, Pekalongan Tim., Kota Pekalongan, Jawa Tengah 51126, Indonesia", "latitude": -6.8850126, "provinsi": "Jawa Tengah", "kecamatan": "Pekalongan Timur", "kota": "Kota Pekalongan"}, "name": "Pekalongan - Banjarsari", "address": "Jl. Sultan Agung No. 36 , Kel.Sugihwaras , Kec.Pekalongan Timur , Pekalongan"}, {"detail": null, "name": "Pemalang - Comal", "address": "Jl. A. Yani Ruko Blok A---2 , Kel.Purwoharjo , Kec.Comal , Pemalang"}, {"detail": null, "name": "Pemalang - Sudirman", "address": "Kompleks Ruko Jend. Sudirman , Jl. Jendral Sudirman No 115 , Pemalang"}, {"detail": {"kelurahan": "Purbalingga Kulon", "longitude": 109.3653932, "formattedAddr": "Jl. Jenderal Sudirman Jl. MT. Haryono, Purbalingga Kulon, Kec. Purbalingga, Kabupaten Purbalingga, Jawa Tengah, Indonesia", "latitude": -7.3898571, "provinsi": "Jawa Tengah", "kecamatan": "Kecamatan Purbalingga", "kota": "Kabupaten Purbalingga"}, "name": "Purbalingga - Sudirman", "address": "Jl. Jend. Sudirman No.37 , Kel.Purbalingga Kulon , Kec.Purbalingga , Purbalingga"}, {"detail": {"kelurahan": "Kutoarjo", "longitude": 109.9091181, "formattedAddr": "Jl. Pangeran Diponegoro, Kutoarjo, Kabupaten Purworejo, Jawa Tengah, Indonesia", "latitude": -7.722683099999999, "provinsi": "Jawa Tengah", "kecamatan": "Kutoarjo", "kota": "Kabupaten Purworejo"}, "name": "Purworejo - Kutoarjo", "address": "Jl. Diponegoro 141 C , Kel.Kutoarjo , Kec.Kutoarjo , Purworejo"}, {"detail": null, "name": "Purworejo - Achmad Dahlan", "address": "Jl. Kh Achmad Dahlan No.66 , Kel.Purworejo , Kec.Purworejo , Purworejo"}, {"detail": {"kelurahan": "Salatiga", "longitude": 110.5047827, "formattedAddr": "Jl. Jend. Sudirman, Salatiga, Sidorejo, Kota Salatiga, Jawa Tengah 50711, Indonesia", "latitude": -7.326216099999999, "provinsi": "Jawa Tengah", "kecamatan": "Sidorejo", "kota": "Kota Salatiga"}, "name": "Salatiga - Sudirman", "address": "Jl. Jend. Sudirman 93 , Kel.Salatiga , Kec.Sidorejo , Salatiga"}, {"detail": {"kelurahan": "Salatiga", "longitude": 110.498026, "formattedAddr": "Jl. Diponegoro No.52, Salatiga, Sidorejo, Kota Salatiga, Jawa Tengah 50711, Indonesia", "latitude": -7.3197188, "provinsi": "Jawa Tengah", "kecamatan": "Sidorejo", "kota": "Kota Salatiga"}, "name": "Salatiga - Diponegoro", "address": "Jl. Diponegoro 52---60 , Kel.Salatiga , Kec.Sidorejo , Salatiga"}, {"detail": null, "name": "Semarang - Cendrawasih", "address": "Kompleks Pertokoan Jurnatan B No.1 , Jl. Cendrawasih , Semarang"}, {"detail": null, "name": "Semarang - Dargo Indah Plaza", "address": "Dargo Indah Plaza Blok D No. 126 , Jl. Dr. Cipto , Semarang"}, {"detail": {"kelurahan": "Kranggan", "longitude": 110.4275123, "formattedAddr": "Gg. Besen, Kranggan, Semarang Tengah, Kota Semarang, Jawa Tengah 50139, Indonesia", "latitude": -6.9764868, "provinsi": "Jawa Tengah", "kecamatan": "Semarang Tengah", "kota": "Kota Semarang"}, "name": "Semarang - Gang Besen", "address": "Jl. Gang Besen 95 C , Kel.Kranggan , Kec.Semarang Tengah , Semarang"}, {"detail": null, "name": "Semarang - Gayam Sari", "address": "Ruko Gayam Sari Kav. 5-6 , Jl. Brigjen Sudiarto , Semarang"}, {"detail": {"kelurahan": "Pekunden", "longitude": 110.4227459, "formattedAddr": "Jl. Gajahmada No.184, Pekunden, Semarang Tengah, Kota Semarang, Jawa Tengah 50241, Indonesia", "latitude": -6.9880263, "provinsi": "Jawa Tengah", "kecamatan": "Semarang Tengah", "kota": "Kota Semarang"}, "name": "Semarang - Gajah Mada", "address": "Jl. Gajahmada No.184 , Kel.Pekunden , Kec.Semarang Timur , Semarang"}, {"detail": {"kelurahan": "Srondol Wetan", "longitude": 110.4157381, "formattedAddr": "Jl. Sukun Raya, Srondol Wetan, Banyumanik, Kota Semarang, Jawa Tengah 50263, Indonesia", "latitude": -7.065368299999999, "provinsi": "Jawa Tengah", "kecamatan": "Banyumanik", "kota": "Kota Semarang"}, "name": "Semarang - Banyumanik", "address": "Jl. Sukun No.52 , Kel.Srondol Wetan , Kec.Banyumanik , Semarang"}, {"detail": {"kelurahan": "Gajahmungkur", "longitude": 110.4159561, "formattedAddr": "Jl. Sultan Agung No.55, Gajahmungkur, Kota Semarang, Jawa Tengah 50232, Indonesia", "latitude": -7.0096792, "provinsi": "Jawa Tengah", "kecamatan": "Gajahmungkur", "kota": "Kota Semarang"}, "name": "Semarang - Sultan Agung", "address": "Jl. Sultan Agung No. 55 J , Kel.Gajahmungkur , Kec.Candisari , Semarang"}, {"detail": {"kelurahan": "Purwoyoso", "longitude": 110.3675151, "formattedAddr": "Jl. Gatot Subroto, Purwoyoso, Ngaliyan, Kota Semarang, Jawa Tengah, Indonesia", "latitude": -6.9943317, "provinsi": "Jawa Tengah", "kecamatan": "Ngaliyan", "kota": "Kota Semarang"}, "name": "Semarang - Ungaran", "address": "Jl. Gatot Subroto No. 106 D , Kel.Purwoyoso , Kec.Ngaliyan , Semarang"}, {"detail": {"kelurahan": "Kaliwiru", "longitude": 110.4189954, "formattedAddr": "Jl. Sultan Agung No.121, Kaliwiru, Candisari, Kota Semarang, Jawa Tengah 50232, Indonesia", "latitude": -7.0182214, "provinsi": "Jawa Tengah", "kecamatan": "Candisari", "kota": "Kota Semarang"}, "name": "Semarang - Candi", "address": "Jl. Sultan Agung No. 121 , Kel.Gajahmungkur , Kec.Candisari , Semarang"}, {"detail": {"kelurahan": "Kupang", "longitude": 110.4056703, "formattedAddr": "Jl. Jend. Sudirman No.134, Kupang, Ambarawa, Semarang, Jawa Tengah 50613, Indonesia", "latitude": -7.2574418, "provinsi": "Jawa Tengah", "kecamatan": "Ambarawa", "kota": "Semarang"}, "name": "Ambarawa - Sudirman", "address": "Jl. Jend. Sudirman 134 , Kel.Kupang , Kec.Ambarawa , Semarang"}, {"detail": {"kelurahan": "Pandansari", "longitude": 110.4173951, "formattedAddr": "Jl. Pemuda No.102, Pandansari, Semarang Tengah, Kota Semarang, Jawa Tengah 50139, Indonesia", "latitude": -6.9764773, "provinsi": "Jawa Tengah", "kecamatan": "Semarang Tengah", "kota": "Kota Semarang"}, "name": "Semarang - Pemuda 102", "address": "Jl. Pemuda 102---104 , Kel.Kembangsari , Kec.Semarang Tengah , Semarang"}, {"detail": {"kelurahan": "Wonodri", "longitude": 110.4324501, "formattedAddr": "Jl. MT. Haryono, Wonodri, Semarang Sel., Kota Semarang, Jawa Tengah 50242, Indonesia", "latitude": -6.999406, "provinsi": "Jawa Tengah", "kecamatan": "Semarang Selatan", "kota": "Kota Semarang"}, "name": "Semarang - Mataram", "address": "Jl. M.T. Haryono 627 , Kel.Wonodri , Kec.Semarang Selatan , Semarang"}, {"detail": null, "name": "Semarang - Gatot Subroto", "address": "Kawasan Industri Candi , Jl. Gatot Subroto Blok F1 / VIII , Semarang"}, {"detail": null, "name": "Semarang - Hasanudin", "address": "Permata Hijau BB.3 Pondok Hasanudin , Jl. Permata Hijau , Semarang"}, {"detail": null, "name": "Semarang - Kaligawe", "address": "Jl. Raya Kaligawe Km 4 No.B11 , Kel.Muktiharjo Lor , Kec.Genuk , Semarang"}, {"detail": {"kelurahan": "Krobokan", "longitude": 110.3984169, "formattedAddr": "Jl. Jenderal Sudirman, Krobokan, Semarang Bar., Kota Semarang, Jawa Tengah 50141, Indonesia", "latitude": -6.980931699999999, "provinsi": "Jawa Tengah", "kecamatan": "Semarang Barat", "kota": "Kota Semarang"}, "name": "Semarang - Siliwangi", "address": "Jl. Jend. Sudirman 35 , Kel.Krobokan , Kec.Semarang Barat , Semarang"}, {"detail": {"kelurahan": "Pandansari", "longitude": 110.4213167, "formattedAddr": "Jl. Pemuda No.21, Pandansari, Semarang Tengah, Kota Semarang, Jawa Tengah 50139, Indonesia", "latitude": -6.9725234, "provinsi": "Jawa Tengah", "kecamatan": "Semarang Tengah", "kota": "Kota Semarang"}, "name": "Semarang - Pemuda 21B", "address": "Jl. Pemuda No. 21B , Kel.Pandansari , Kec.Semarang Tengah , Semarang"}, {"detail": null, "name": "Semarang - RS Telogorejo", "address": "Komp Rs Telogorejo , Jl. Kh Achmad Dahlan Blok A6/11 , Semarang"}, {"detail": null, "name": "Semarang - Ken Saras", "address": "Rs Ken Saras Lt. Dasar , Jl. Raya Soekarno Hatta Km 30 , Semarang"}, {"detail": null, "name": "Solo - Mesen Square", "address": "Ruko Messen Square No.3-4 , Jl. Urip Sumohardjo , Solo"}, {"detail": null, "name": "Solo - Pasar Klewer", "address": "Kompleks Ruko Ps. Klewer Blok EE No. 38-43 , Jl. Dr. Radjiman , Solo"}, {"detail": null, "name": "Solo - Palur", "address": "Jl. Raya Palur Km 7 No. 8A , Kel.Ngringo , Kec.Jaten , Karanganyar"}, {"detail": null, "name": "Solo - Solo Baru", "address": "Jl. Raya Solo Baru Ab No. 4 , Kel.Langen Harjo , Kec.Grogol , Sukoharjo"}, {"detail": null, "name": "Solo - Slamet Riyadi 8", "address": "Jl. Slamet Riyadi No. 8 , Kel.Kampung Baru , Kec.Ps. Kliwon , Solo"}, {"detail": {"latitude": -7.556142699999999, "formattedAddr": "Jl. Adi Sucipto, Kota Surakarta, Jawa Tengah, Indonesia", "provinsi": "Jawa Tengah", "longitude": 110.8039098, "kota": "Kota Surakarta"}, "name": "Solo - Manahan", "address": "Jl. L.U. Adisutipto No. 21 , Kel.Manahan , Kec.Banjarsari , Solo"}, {"detail": null, "name": "Solo - Gading", "address": "Ruko Gading No.2 , Jl. Brigjen Sudiarto , Solo"}, {"detail": null, "name": "Solo - Ir. Sutami", "address": "Ruko pucang-sawit , Jl. Ir. Sutami No.82 , Solo"}, {"detail": {"kelurahan": "Sekayu", "longitude": 110.4099649, "formattedAddr": "Jl. Pandanaran, Sekayu, Semarang Tengah, Kota Semarang, Jawa Tengah, Indonesia", "latitude": -6.9844621, "provinsi": "Jawa Tengah", "kecamatan": "Semarang Tengah", "kota": "Kota Semarang"}, "name": "Semarang - Pandanaran", "address": "Jl. Pandanaran No.84 , Kel. Sekayu , Kec. Semarang Tengah , Semarang"}, {"detail": {"kecamatan": "Kecamatan Wonosobo", "longitude": 109.9010626, "formattedAddr": "Jl. Jenderal Ahmad Yani, Kec. Wonosobo, Kabupaten Wonosobo, Jawa Tengah, Indonesia", "latitude": -7.3692438, "provinsi": "Jawa Tengah", "kota": "Kabupaten Wonosobo"}, "name": "Wonosobo - Ahmad Yani", "address": "Jl. A. Yani , Kec.Wonosobo , Wonosobo"}, {"detail": {"kelurahan": "Giritirto", "longitude": 110.921772, "formattedAddr": "Jl. Jend. Sudirman No.122, Giritirto, Kec. Wonogiri, Kabupaten Wonogiri, Jawa Tengah 57611, Indonesia", "latitude": -7.8227559, "provinsi": "Jawa Tengah", "kecamatan": "Kecamatan Wonogiri", "kota": "Kabupaten Wonogiri"}, "name": "Wonogiri - Sudirman", "address": "Jl. Jend. Sudirman No.122 , Kel.Giritirto , Kec.Wonogiri , Wonogiri"}, {"detail": null, "name": "Temanggung - Diponegoro", "address": "Ruko No. 6 , Jl. Diponegoro , Temanggung"}, {"detail": {"kelurahan": "Tembok Banjaran", "longitude": 109.1364309, "formattedAddr": "Jl. Raya Utara Banjaran, Tembok Banjaran, Adiwerna, Tegal, Jawa Tengah 52194, Indonesia", "latitude": -6.9404521, "provinsi": "Jawa Tengah", "kecamatan": "Adiwerna", "kota": "Tegal"}, "name": "Tegal - Banjaran", "address": "Jl. Raya Banjaran 39 , Kel.Banjaran , Kec.Adiwerna , Tegal"}, {"detail": null, "name": "Tegal - Slawi", "address": "Jl. Mayjen Sutoyo 37 , Kel.Kagog , Kec.Slawi Wetan , Slawi"}, {"detail": {"kelurahan": "Randugunting", "longitude": 109.1346522, "formattedAddr": "Jl. Jend. Sudirman No.34, Randugunting, Tegal Sel., Kota Tegal, Jawa Tengah 52125, Indonesia", "latitude": -6.870043399999999, "provinsi": "Jawa Tengah", "kecamatan": "Tegal Selatan", "kota": "Kota Tegal"}, "name": "Tegal - Sudirman", "address": "Jl. Jend. Sudirman No. 34 , Kel.Pekauman , Kec.Tegal Barat , Tegal"}, {"detail": {"kelurahan": "Gayam", "longitude": 110.8417232, "formattedAddr": "Jl. Jend. Sudirman No.16, Gayam, Kec. Sukoharjo, Kabupaten Sukoharjo, Jawa Tengah 57512, Indonesia", "latitude": -7.6796735, "provinsi": "Jawa Tengah", "kecamatan": "Kecamatan Sukoharjo", "kota": "Kabupaten Sukoharjo"}, "name": "Sukoharjo - Sudirman", "address": "Jl. Jend. Sudirman No. 16 , Kel.Gayam , Kec.Sukoharjo Kota , Sukoharjo"}, {"detail": null, "name": "Sragen - Sukowati", "address": "Pasar Kota Sragen , Jl. Raya Sukowati No. 229 , Sragen"}, {"detail": null, "name": "Solo - Pasar Legi", "address": "Pasar Legi Kios A 1--5 , Jl. S. Parman , Solo"}, {"detail": null, "name": "Solo - ATMI", "address": "Atmi , Jl. Mojo No. 1 , Solo"}, {"detail": {"kecamatan": "Laweyan", "longitude": 110.7974235, "formattedAddr": "Jl. Brigjend Slamet Riyadi, Laweyan, Kota Surakarta, Jawa Tengah, Indonesia", "latitude": -7.5628951, "provinsi": "Jawa Tengah", "kota": "Kota Surakarta"}, "name": "Solo - Purwosari", "address": "Jl. Slamet Riyadi 145 , Kel.Sondakani , Kec.Laweyan , Solo"}, {"detail": null, "name": "Solo - Kartasura", "address": "Ruko Kartasura B 3-4,Jl. Ahmad Yani , Kel.Pucangan , Kec.Kartasura , Sukoharjo"}, {"detail": null, "name": "Solo - Delanggu", "address": "Jl. Raya Delanggu No.39 , Kel.Gatak , Kec.Delanggu , Solo"}, {"detail": {"kelurahan": "Keprabon", "longitude": 110.8227542, "formattedAddr": "Jl. Brigjend Slamet Riyadi No.136, Keprabon, Banjarsari, Kota Surakarta, Jawa Tengah 57151, Indonesia", "latitude": -7.5704981, "provinsi": "Jawa Tengah", "kecamatan": "Banjarsari", "kota": "Kota Surakarta"}, "name": "Solo - Slamet Riyadi 136", "address": "Jl. Slamet Riyadi 136 , Kel.Keprabon , Kec.Banjarsari , Solo"}, {"detail": null, "name": "Solo - Paragon Mall", "address": "Solo Paragon Lt. FF , Jl. Yosodipuro No.133 , Solo"}, {"detail": {"kelurahan": "Nusukan", "longitude": 110.821381, "formattedAddr": "Jl. Kapten Piere Tendean No.56, Nusukan, Banjarsari, Kota Surakarta, Jawa Tengah 57135, Indonesia", "latitude": -7.548572999999999, "provinsi": "Jawa Tengah", "kecamatan": "Banjarsari", "kota": "Kota Surakarta"}, "name": "Solo - Pierre Tendean", "address": "Jl. Piere Tendean 56 , Kel.Nusukan , Kec.Banjarsari , Solo"}, {"detail": null, "name": "Banyuwangi - Sudirman", "address": "Jl. Pb Sudirman No. 23-25 , Kel.Penganjuran , Kec.Banyuwangi , Banyuwangi"}, {"detail": null, "name": "Banyuwangi - Genteng", "address": "Jl. Gajah Mada, Komplek Pasar Genteng Ruko Blok B-1 , Kel.Genteng Kulon , Kec.Genteng , Banyuwangi"}, {"detail": null, "name": "Blitar - Merdeka", "address": "Komplek Pertokoan , Jl. Merdeka No.111 , Blitar"}, {"detail": {"kelurahan": "Kauman", "longitude": 111.8784075, "formattedAddr": "Jl. Panglima Sudirman No.60, Kauman, Kec. Bojonegoro, Kabupaten Bojonegoro, Jawa Timur 62113, Indonesia", "latitude": -7.1519878, "provinsi": "Jawa Timur", "kecamatan": "Kecamatan Bojonegoro", "kota": "Kabupaten Bojonegoro"}, "name": "Bojonegoro - Sudirman", "address": "Jl. Panglima Sudirman 60 , Kel.Kauman , Kec.Bojonegoro , Bojonegoro"}, {"detail": null, "name": "Bondowoso - Sudirman", "address": "Jl. Panglima Besar Sudirman No. 46 , Kel.Dabasah , Kec.Kota Bondowoso , Bondowoso"}, {"detail": {"kelurahan": "Kemuteran", "longitude": 112.65062, "formattedAddr": "Jl. Usman Sadar No.25, Kemuteran, Kec. Gresik, Kabupaten Gresik, Jawa Timur 61116, Indonesia", "latitude": -7.153938999999999, "provinsi": "Jawa Timur", "kecamatan": "Kecamatan Gresik", "kota": "Kabupaten Gresik"}, "name": "Gresik - Usman Sadar", "address": "Jl. Usman Sadar No. 25 , Kel.Karangturi , Kec.Gresik , Gresik"}, {"detail": null, "name": "Gresik - Kartini", "address": "Jl. R.A Kartini No. 236 Kav 2 & 3 , Kel.Sidomoro , Kec.Kebomas , Gresik"}, {"detail": null, "name": "Jember - Diponegoro", "address": "Ruko Mutiara Plaza , Jl. Diponegoro No. 33-34 , Jember"}, {"detail": {"kelurahan": "Kaliwates", "longitude": 113.6840759, "formattedAddr": "Jl. Gajah Mada No.288, Kaliwates, Kabupaten Jember, Jawa Timur 68131, Indonesia", "latitude": -8.1762275, "provinsi": "Jawa Timur", "kecamatan": "Kaliwates", "kota": "Kabupaten Jember"}, "name": "Jember - Gajah Mada", "address": "Jl. Gajah Mada No. 288 , Kel.Kaliwates , Kec.Kaliwates , Jember"}, {"detail": {"kelurahan": "Jombang", "longitude": 112.2361716, "formattedAddr": "Jl. A.Yani No.36, Jombang, Kec. Jombang, Kabupaten Jombang, Jawa Timur 61419, Indonesia", "latitude": -7.5378692, "provinsi": "Jawa Timur", "kecamatan": "Kecamatan Jombang", "kota": "Kabupaten Jombang"}, "name": "Jombang - Ahmad Yani", "address": "Jl. Ahmad Yani No. 36 , Kel.Jombang , Kec.Jombang , Jombang"}, {"detail": {"kelurahan": "Pocanan", "longitude": 112.0134142, "formattedAddr": "Jl. Diponegoro No.16, Pocanan, Kec. Kota Kediri, Kediri, Jawa Timur 64129, Indonesia", "latitude": -7.811462799999999, "provinsi": "Jawa Timur", "kecamatan": "Kecamatan Kota Kediri", "kota": "Kediri"}, "name": "Kediri - Diponegoro", "address": "Jl. Diponegoro No. 16 , Kel. Balowerti , Kec.Kota Kediri , Kediri"}, {"detail": {"kelurahan": "Pakelan", "longitude": 112.0117864, "formattedAddr": "Jl. Brawijaya No.27, Pakelan, Kec. Kota Kediri, Kota Kediri, Jawa Timur 64129, Indonesia", "latitude": -7.8139477, "provinsi": "Jawa Timur", "kecamatan": "Kecamatan Kota Kediri", "kota": "Kota Kediri"}, "name": "Kediri - Brawijaya", "address": "Jl. Brawijaya 27 , Kel.Pakelan , Kec.Kota , Kediri"}, {"detail": {"kelurahan": "Pare", "longitude": 112.1964845, "formattedAddr": "Jl. WR Supratman No.11, Pare, Kediri, Jawa Timur 64211, Indonesia", "latitude": -7.7698859, "provinsi": "Jawa Timur", "kecamatan": "Pare", "kota": "Kediri"}, "name": "Kediri - Pare", "address": "Jl. WR Supratman No 11 , Kel.Pare , Kec.Pare , Kediri"}, {"detail": {"kelurahan": "Sidokumpul", "longitude": 112.4170716, "formattedAddr": "Jl. Lamongrejo, Sidokumpul, Kec. Lamongan, Kabupaten Lamongan, Jawa Timur, Indonesia", "latitude": -7.115224899999999, "provinsi": "Jawa Timur", "kecamatan": "Kecamatan Lamongan", "kota": "Kabupaten Lamongan"}, "name": "Lamongan - Lamongrejo", "address": "Jl. Lamongrejo No. 68 , Kel.Sidokumpul , Kec.Lamongan , Lamongan"}, {"detail": null, "name": "Lumajang - Sudirman", "address": "Plaza Lumajang , Jl. Panglima Sudirman Plaza Blok A-11 Lumajang , Lumajang"}, {"detail": null, "name": "Madiun - Pahlawan", "address": "Jl. Pahlawan No. 56 , Kel.Pangongangan , Kec.Manguharjo , Madiun"}, {"detail": {"kelurahan": "Kepolorejo", "longitude": 111.32703, "formattedAddr": "Jl. Panglima Sudirman No.26, Kepolorejo, Kec. Magetan, Kabupaten Magetan, Jawa Timur, Indonesia", "latitude": -7.653850199999999, "provinsi": "Jawa Timur", "kecamatan": "Kecamatan Magetan", "kota": "Kabupaten Magetan"}, "name": "Magetan - Sudirman", "address": "Jl. Sudirman No 26 , Kel. Kebon Agung , Kec. Magetan , Magetan"}, {"detail": {"kelurahan": "Kiduldalem", "longitude": 112.6314044, "formattedAddr": "Jl. Merdeka Timur No.4, Kiduldalem, Klojen, Kota Malang, Jawa Timur 65119, Indonesia", "latitude": -7.983345099999999, "provinsi": "Jawa Timur", "kecamatan": "Klojen", "kota": "Kota Malang"}, "name": "Malang - Merdeka", "address": "Jl. Merdeka Timur 4 , Kel.Kidul Dalem , Kec.Klojen , Malang"}, {"detail": null, "name": "Malang - Dampit", "address": "Ruko Jenggolo , Jl. Jenggolo A 4 , Malang"}, {"detail": null, "name": "Malang - Kepanjen", "address": "Ruko A.Yani , Jl. A. Yani No 6 , Malang"}, {"detail": null, "name": "Malang - Town Square", "address": "Mall Malang Town Square (Matos) , Jl. Veteran No. 2 , Malang"}, {"detail": {"kelurahan": "Sisir", "longitude": 112.528603, "formattedAddr": "Jl. Diponegoro No.48, Sisir, Kec. Batu, Kota Batu, Jawa Timur 65314, Indonesia", "latitude": -7.8726669, "provinsi": "Jawa Timur", "kecamatan": "Kecamatan Batu", "kota": "Kota Batu"}, "name": "Malang - Batu", "address": "Jl. Diponegoro No.48 , Kel.Sisir , Kec.Batu , Malang"}, {"detail": null, "name": "Malang - Kyai Tamin", "address": "Ruko Tamin , Jl. Kyai Tamin No. 115-117 , Malang"}, {"detail": {"kelurahan": "Kauman", "longitude": 112.6295022, "formattedAddr": "Jl. Jenderal Basuki Rahmat No.26, Kauman, Klojen, Kota Malang, Jawa Timur 65119, Indonesia", "latitude": -7.9785121, "provinsi": "Jawa Timur", "kecamatan": "Klojen", "kota": "Kota Malang"}, "name": "Malang - Basuki Rachmad", "address": "Jl. Basuki Rachmad No. 26-28 , Kel.Kauman , Kec.Klojen , Malang"}, {"detail": {"kelurahan": "Blimbing", "longitude": 112.6421697, "formattedAddr": "Jl. Ahmad. Yani No.18, Blimbing, Kota Malang, Jawa Timur 65126, Indonesia", "latitude": -7.941989299999999, "provinsi": "Jawa Timur", "kecamatan": "Blimbing", "kota": "Kota Malang"}, "name": "Malang - Ahmad Yani", "address": "Jl. A. Yani No. 18-E , Kel.Blimbing , Kec.Blimbing , Malang"}, {"detail": {"kelurahan": "Gading Kasri", "longitude": 112.6134744, "formattedAddr": "Jl. Galunggung No.58, Gading Kasri, Klojen, Kota Malang, Jawa Timur 65115, Indonesia", "latitude": -7.967848600000001, "provinsi": "Jawa Timur", "kecamatan": "Klojen", "kota": "Kota Malang"}, "name": "Malang - Galunggung", "address": "Jl. Galunggung No. 58 , Kel.Gadingkasri , Kec.Klojen , Malang"}, {"detail": null, "name": "Malang - RS Saiful Anwar", "address": "Rs Dr. Saiful Anwar (RSSA) , Jl. Jaksa Agung Suprapto No. 2 , Malang"}, {"detail": {"kelurahan": "Mojolangu", "longitude": 112.6281656, "formattedAddr": "Ruko Soekarno Hatta, Jl. Soekarno Hatta No.82 B, Mojolangu, Kec. Lowokwaru, Kota Malang, Jawa Timur 65141, Indonesia", "latitude": -7.937753099999998, "provinsi": "Jawa Timur", "kecamatan": "Kecamatan Lowokwaru", "kota": "Kota Malang"}, "name": "Malang - Soekarno Hatta", "address": "Ruko Soekarno Hatta , Jl. Soekarno Hatta No. 2-2A , Malang"}, {"detail": null, "name": "Malang - Universitas Kanjuruhan", "address": "Universitas Kanjuruhan Malang , Jl. S. Supriadi No.48 , Malang"}, {"detail": null, "name": "Surabaya - Pakuwon City", "address": "Ruko East Coast Pakuwon Town Square (Patos) Blok AA 02-002 Pakuwon City , Jl. Kejawan Putih Tambak , Surabaya"}, {"detail": null, "name": "Surabaya - Mulyosari", "address": "Ruko Raya Mulyosari , Jl. Raya Mulyosari 166 , Surabaya"}, {"detail": {"kelurahan": "Mojo", "longitude": 112.77, "formattedAddr": "Jl. Dharmahusada No.142, Mojo, Gubeng, Kota SBY, Jawa Timur 60285, Indonesia", "latitude": -7.267380999999999, "provinsi": "Jawa Timur", "kecamatan": "Gubeng", "kota": "Kota Surabaya"}, "name": "Surabaya - Dharmahusada", "address": "Jl. Dharmahusada 142 , Kel.Mojo , Kec.Gubeng , Surabaya"}, {"detail": {"kelurahan": "Perak Barat", "longitude": 112.720192, "formattedAddr": "Jl. Tj. Mutiara No.1, Perak Bar., Krembangan, Kota SBY, Jawa Timur 60177, Indonesia", "latitude": -7.212357000000001, "provinsi": "Jawa Timur", "kecamatan": "Krembangan", "kota": "Kota Surabaya"}, "name": "Surabaya - Terminal Peti Kemas", "address": "Jl. Tanjung Mutiara No. 1 , Kel.Perak Barat , Kec.Krembangan , Surabaya"}, {"detail": {"kelurahan": "Dukuh Sutorejo", "longitude": 112.793314, "formattedAddr": "610b, Ruko Babatan Pantai, Jl. Kenjeran No.616, Dukuh Sutorejo, Mulyorejo, Kota SBY, Jawa Timur 60113, Indonesia", "latitude": -7.252864900000001, "provinsi": "Jawa Timur", "kecamatan": "Mulyorejo", "kota": "Kota Surabaya"}, "name": "Surabaya - Kenjeran", "address": "Ruko Babatan , Jl. Raya Kenjeran No. 610B , Surabaya"}, {"detail": {"kelurahan": "Perak Barat", "longitude": 112.730871, "formattedAddr": "Jl. Perak Bar. No.121, Perak Bar., Krembangan, Kota SBY, Jawa Timur 60177, Indonesia", "latitude": -7.226000999999999, "provinsi": "Jawa Timur", "kecamatan": "Krembangan", "kota": "Kota Surabaya"}, "name": "Surabaya - Perak", "address": "Jl. Perak Barat No. 121 , Kel.Perak Barat , Kec.Krembangan , Surabaya"}, {"detail": null, "name": "Surabaya - Kembang Jepun", "address": "Ruko Kembang Jepun Megah Raya , Jl. Kembang Jepun No. 129 , Surabaya"}, {"detail": null, "name": "Surabaya - Grand City", "address": "Grand City Mall Lantai LG , Jl. Gubeng Pojok Dalam No.1 , Surabaya"}, {"detail": {"kelurahan": "Sukomanunggal", "longitude": 112.698274, "formattedAddr": "1, Ruko Satelite Town Square, Jl. Raya Sukomanunggal Jaya No.5, Sukomanunggal, Suko Manunggal, Kota SBY, Jawa Timur 60188, Indonesia", "latitude": -7.272383, "provinsi": "Jawa Timur", "kecamatan": "Suko Manunggal", "kota": "Kota Surabaya"}, "name": "Surabaya - Sukomanunggal", "address": "Ruko Satelit Town Square , Jl. Raya Sukomanunggal Jaya 5 Blok B No.1 , Surabaya"}, {"detail": null, "name": "Surabaya - RS Darmo", "address": "Rs Darmo Surabaya , Jl. Raya Darmo No.90 , Surabaya"}, {"detail": {"kelurahan": "Darmo", "longitude": 112.7357255, "formattedAddr": "Jl. Raya Diponegoro No.70, Darmo, Wonokromo, Kota SBY, Jawa Timur 60241, Indonesia", "latitude": -7.289438199999999, "provinsi": "Jawa Timur", "kecamatan": "Wonokromo", "kota": "Kota Surabaya"}, "name": "Surabaya - Diponegoro", "address": "Jl. Raya Diponegoro 70 , Kel.Darmo , Kec.Wonokromo , Surabaya"}, {"detail": {"kelurahan": "Embong Kaliasin", "longitude": 112.7454201, "formattedAddr": "Jl. Panglima Sudirman No.10, Embong Kaliasin, Genteng, Kota SBY, Jawa Timur 60271, Indonesia", "latitude": -7.2650671, "provinsi": "Jawa Timur", "kecamatan": "Genteng", "kota": "Kota Surabaya"}, "name": "Surabaya - Graha Bukopin", "address": "Jl. Panglima Sudirman N0.10-18 , Kel.Embong Kaliasin , Kec.Genteng , Surabaya"}, {"detail": {"kelurahan": "DR. Soetomo", "longitude": 112.7403139, "formattedAddr": "Jl. Darmo Raya No.26, DR. Soetomo, Tegalsari, Kota SBY, Jawa Timur 60264, Indonesia", "latitude": -7.280127999999999, "provinsi": "Jawa Timur", "kecamatan": "Tegalsari", "kota": "Kota Surabaya"}, "name": "Surabaya - Darmo", "address": "Jl. Raya Darmo No.26 , Kel.Dr.Sutomo , Kec.Tegalsari , Surabaya"}, {"detail": null, "name": "Surabaya - Kenjeran RS Mitra Keluarga", "address": "Rs Mitra Keluarga Kenjeran , Jl. Raya Kenjeran No. 506 , Surabaya"}, {"detail": null, "name": "Surabaya - Universitas Kristen Petra", "address": "Gedung D Kampus Universitas Kristen Petra , Jl. Siwalankerto 121 - 131 , Surabaya"}, {"detail": {"kelurahan": "Tropodo", "longitude": 112.764887, "formattedAddr": "Sentra Tropodo Wisata Tour And Travel Service, Ruko Sentra Tropodo, Jl. Raya Tropodo No.115, Tropodo, Waru, Kabupaten Sidoarjo, Jawa Timur 61235, Indonesia", "latitude": -7.359985, "provinsi": "Jawa Timur", "kecamatan": "Waru", "kota": "Kabupaten Sidoarjo"}, "name": "Surabaya - Wadung Asri", "address": "Ruko Sentra Tropodo Blok A/18 , Jl. Raya Tropodo 115 , Sidoarjo"}, {"detail": {"kelurahan": "Dukuh Menanggal", "longitude": 112.727621, "formattedAddr": "Mall City Of Tomorrow, Jl. Ahmad Yani No.288, Dukuh Menanggal, Gayungan, Kota SBY, Jawa Timur 60234, Indonesia", "latitude": -7.344822000000001, "provinsi": "Jawa Timur", "kecamatan": "Gayungan", "kota": "Kota Surabaya"}, "name": "Surabaya - City of Tomorrow", "address": "Mall City Of Tomorrow Blok GE-20 , Jl. Ahmad Yani No 288 , Surabaya"}, {"detail": {"kelurahan": "Rungkut Kidul", "longitude": 112.779545, "formattedAddr": "Jl. Raya Rungkut Madya No.95, Rungkut Kidul, Rungkut, Kota SBY, Jawa Timur 60293, Indonesia", "latitude": -7.331560699999999, "provinsi": "Jawa Timur", "kecamatan": "Rungkut", "kota": "Kota Surabaya"}, "name": "Surabaya - Rungkut", "address": "Jl. Rungkut Madya 95 , Kel.Rungkut , Kec.Gunung Anyar , Surabaya"}, {"detail": {"kelurahan": "Tenggilis Mejoyo", "longitude": 112.7541482, "formattedAddr": "Jl. Raya Jemur Sari No.161, Tenggilis Mejoyo, Kota SBY, Jawa Timur 60239, Indonesia", "latitude": -7.315535699999999, "provinsi": "Jawa Timur", "kecamatan": "Tenggilis Mejoyo", "kota": "Kota Surabaya"}, "name": "Surabaya - Jemursari", "address": "Jl. Jemursari 161 , Kel. Kendangsari , Kec. Tenggilis Mejoyo , Surabaya"}, {"detail": null, "name": "Surabaya - Gateway", "address": "Ruko Gateway B-9 , Jl. Suparman, Sawotratap , Sidoarjo"}, {"detail": null, "name": "Surabaya - Grahapena", "address": "Gedung Graha Pena , Jl. A Yani No. 88 , Surabaya"}, {"detail": {"kelurahan": "Jemur Wonosari", "longitude": 112.739683, "formattedAddr": "Jl. Jemur Andayani No.53, Jemur Wonosari, Wonocolo, Kota SBY, Jawa Timur 60237, Indonesia", "latitude": -7.328308000000001, "provinsi": "Jawa Timur", "kecamatan": "Wonocolo", "kota": "Kota Surabaya"}, "name": "Surabaya - Andayani", "address": "Jl. Jemur Andayani 53-A , Kel.Jemur Wonosari , Kec.Wonocolo , Surabaya"}, {"detail": {"kelurahan": "Mimbaan", "longitude": 114.0115791, "formattedAddr": "Jl. Sepudi, Mimbaan, Panji, Kabupaten Situbondo, Jawa Timur 68323, Indonesia", "latitude": -7.7059556, "provinsi": "Jawa Timur", "kecamatan": "Panji", "kota": "Kabupaten Situbondo"}, "name": "Situbondo - Sepudi", "address": "Jl. Sepudi 15A , Kel.Mimbaan , Kec.Panji , Situbondo"}, {"detail": {"kelurahan": "Sidokumpul", "longitude": 112.717645, "formattedAddr": "Jl. Ahmad Yani No.40 C, Sidokumpul, Kec. Sidoarjo, Kabupaten Sidoarjo, Jawa Timur 61219, Indonesia", "latitude": -7.450552, "provinsi": "Jawa Timur", "kecamatan": "Kecamatan Sidoarjo", "kota": "Kabupaten Sidoarjo"}, "name": "Sidoarjo - Ahmad Yani", "address": "Jl. A. Yani No 40-C, Sidoarjo , Kel.Sidokumpul , Kec.Sidoarjo , Sidoarjo"}, {"detail": null, "name": "Probolinggo - Sutomo", "address": "Plaza Probolinggo , Jl. Dr Soetomo Plaza Blok B 9-10 Probolinggo , Probolinggo"}, {"detail": null, "name": "Ponorogo - Gajah Mada", "address": "Ruko Gajahmada , Jl. Gajahmada No 11 , Ponorogo"}, {"detail": null, "name": "Pasuruan - Pasar Besar", "address": "Ruko Pasar Besar , Jl. Soekarno Hatta Pasar Besar Blok A-1 Pasuruan . , Pasuruan"}, {"detail": null, "name": "Ngawi - Sultan Agung", "address": "Jl. Sultan Agung No 98 - Lingk Sidomakmur , Kel.Ketanggi , Kec.Ngawi , Ngawi"}, {"detail": {"kelurahan": "Payaman", "longitude": 111.8998419, "formattedAddr": "Jl. Ahmad Yani No.159, Payaman, Kec. Nganjuk, Kabupaten Nganjuk, Jawa Timur 64418, Indonesia", "latitude": -7.6084014, "provinsi": "Jawa Timur", "kecamatan": "Kecamatan Nganjuk", "kota": "Kabupaten Nganjuk"}, "name": "Nganjuk - Ahmad Yani", "address": "Jl. Ahmad Yani 159 , Kel.Payaman , Kec.Kec.Nganjuk , Nganjuk"}, {"detail": null, "name": "Mojokerto - Mojopahit", "address": "Jl. Majapahit No. 256 , Kel.Mentikan , Kec.Prajurit Kulon , Mojokerto"}, {"detail": {"kelurahan": "Pacar Kembang", "longitude": 112.7587369, "formattedAddr": "Perpustakaan UNAIR - Kampus A, Jl. Profesor DR. Mustopo No.47, Pacar Kembang, Tambaksari, Kota SBY, Jawa Timur 60132, Indonesia", "latitude": -7.2646544, "provinsi": "Jawa Timur", "kecamatan": "Tambaksari", "kota": "Kota Surabaya"}, "name": "Surabaya - Universitas Airlangga", "address": "Kampus UNAIR , Jl. Prof Moestopo No 47 , Surabaya"}, {"detail": null, "name": "Surabaya - Kapas Krampung", "address": "Ruko Kav No 71-A , Jl. Kapas Krampung 71A , Surabaya"}, {"detail": null, "name": "Surabaya - Pasar Atom", "address": "Kompleks Pasar Atom Thp 4,Lt.1 , Jl. .Waspada Blok G 7-8 , Surabaya"}, {"detail": {"kelurahan": "Kapasari", "longitude": 112.7481, "formattedAddr": "Jl. Pecindilan No.44, Kapasari, Genteng, Kota SBY, Jawa Timur 60273, Indonesia", "latitude": -7.245743999999999, "provinsi": "Jawa Timur", "kecamatan": "Genteng", "kota": "Kota Surabaya"}, "name": "Surabaya - Pecindilan", "address": "Jl. Pecindilan No 44 C Surabaya , Kel.Kapasari , Kec.Genteng , Surabaya"}, {"detail": {"kelurahan": "Embong Kaliasin", "longitude": 112.743748, "formattedAddr": "Jl. Panglima Sudirman No.61, Embong Kaliasin, Genteng, Kota SBY, Jawa Timur 60271, Indonesia", "latitude": -7.270429999999999, "provinsi": "Jawa Timur", "kecamatan": "Genteng", "kota": "Kota Surabaya"}, "name": "Surabaya - Sudirman", "address": "Jl. Panglima Sudirman No. 59-61 Surabaya , Kel.Embong Kaliasin , Kec.Genteng , Surabaya"}, {"detail": {"kelurahan": "Gubeng", "longitude": 112.7479976, "formattedAddr": "Jl. Raya Gubeng No.50, Gubeng, Kota SBY, Jawa Timur 60281, Indonesia", "latitude": -7.272264400000001, "provinsi": "Jawa Timur", "kecamatan": "Gubeng", "kota": "Kota Surabaya"}, "name": "Surabaya - Gubeng", "address": "Jl. Raya Gubeng No. 50 , Kel.Gubeng , Kec.Gubeng , Surabaya"}, {"detail": {"kelurahan": "Genteng", "longitude": 112.739101, "formattedAddr": "Jl. Tunjungan No.47, Genteng, Kota SBY, Jawa Timur 60275, Indonesia", "latitude": -7.258937, "provinsi": "Jawa Timur", "kecamatan": "Genteng", "kota": "Kota Surabaya"}, "name": "Surabaya - Tunjungan", "address": "Jl. Tunjungan No. 47 , Kel.Genteng , Kec.Genteng , Surabaya"}, {"detail": {"kelurahan": "Dukuh Pakis", "longitude": 112.7100993, "formattedAddr": "Jl. Mayjen Sungkono No.93, Dukuh Pakis, Kota SBY, Jawa Timur 60225, Indonesia", "latitude": -7.289054899999999, "provinsi": "Jawa Timur", "kecamatan": "Dukuh Pakis", "kota": "Kota Surabaya"}, "name": "Surabaya - Sungkono", "address": "Jl. Mayjend Sungkono No 93 , Kel.Dukuh Pakis , Kec.Dukuh Pakis , Surabaya"}, {"detail": null, "name": "Surabaya - Krian", "address": "Jl. Kauman No 44, Krian , Kel.Krian , Kec.Krian , Sidoarjo"}, {"detail": null, "name": "Surabaya - Pakuwon Trade Center", "address": "Komplek Pertokoan Super Mall Lt. 2 Blok Tt No. 12 , Jl. Puncak Bukit Lontar 2 , Surabaya"}, {"detail": null, "name": "Surabaya - HR Muhammad", "address": "Ruko Apartement Beverly Park Blok A - 1 , Jl. HR Muhammad No 49-55, Surabaya"}, {"detail": null, "name": "Surabaya - Sepanjang", "address": "Ruko Town House , Jl. Kalijaten No 71-73, Kav A-2 , Sidoarjo"}, {"detail": null, "name": "Surabaya - Wiyung", "address": "Ruko Taman Pondok Indah Blok A No 18 , Jl. Raya Menganti No 18, Komp Pertokoan Taman Blok A No 18 , Surabaya"}, {"detail": {"kelurahan": "Kertajaya", "longitude": 112.756123, "formattedAddr": "Jl. Pucang Anom Tim. No.27, Kertajaya, Gubeng, Kota SBY, Jawa Timur 60282, Indonesia", "latitude": -7.285829000000001, "provinsi": "Jawa Timur", "kecamatan": "Gubeng", "kota": "Kota Surabaya"}, "name": "Surabaya - Pucang Anom", "address": "Jl. Pucang Anom Timur No.27 , Kel.Kertajaya , Kec.Gubeng , Surabaya"}, {"detail": null, "name": "Surabaya - Manyar Kertoardjo", "address": "Ruko Manyar Kertoarjo , Jl. Manyar Kertoarjo V No. 75-77 , Surabaya"}, {"detail": null, "name": "Surabaya - Klampis", "address": "Ruko 88 , Jl. Klampis Jaya 27E , Surabaya"}, {"detail": null, "name": "Surabaya - Manyar Mega Indah", "address": "Pertokoan Manyar Mega Indah , Jl. Ngagel Jaya Selayan G-3 , Surabaya"}, {"detail": {"kelurahan": "Sawahan", "longitude": 112.7307349, "formattedAddr": "Jl. Tidar No.25, Sawahan, Kec. Sawahan, Kota SBY, Jawa Timur 60251, Indonesia", "latitude": -7.257841, "provinsi": "Jawa Timur", "kecamatan": "Kecamatan Sawahan", "kota": "Kota Surabaya"}, "name": "Surabaya - Tidar", "address": "Jl. Tidar 23-25, Surabaya , Kel.Sawahan , Kec.Sawahan , Surabaya"}, {"detail": null, "name": "Surabaya - Kedungdoro", "address": "Jl. Kedungdoro No.139 Surabaya , Kel.Kedungdoro , Kec.Tegalsari , Surabaya"}, {"detail": {"kelurahan": "Sidomulyo", "longitude": 112.0584444, "formattedAddr": "Jl. Basuki Rachmad, Sidomulyo, Kec. Tuban, Kabupaten Tuban, Jawa Timur 62316, Indonesia", "latitude": -6.8986082, "provinsi": "Jawa Timur", "kecamatan": "Kecamatan Tuban", "kota": "Kabupaten Tuban"}, "name": "Tuban - Basuki Rahmat", "address": "Jl. Basuki Rachmat 116 , Kel.Sidomulyo , Kec.Tuban , Tuban"}, {"detail": {"kelurahan": "Kepatihan", "longitude": 111.9142602, "formattedAddr": "Jl. Panglima Sudirman Gg. 8 No.79, Kepatihan, Kec. Tulungagung, Kabupaten Tulungagung, Jawa Timur 66219, Indonesia", "latitude": -8.0622132, "provinsi": "Jawa Timur", "kecamatan": "Kecamatan Tulungagung", "kota": "Kabupaten Tulungagung"}, "name": "Tulungagung - Sudirman", "address": "Jl. P . Sudirman No. 79 , Kel.Kepatihan , Kec.Tulungagung , Tulungagung"}, {"detail": {"kelurahan": "Sawunggaling", "longitude": 112.730912, "formattedAddr": "Jl. Adityawarman No.53, Sawunggaling, Wonokromo, Kota SBY, Jawa Timur 60242, Indonesia", "latitude": -7.294203899999999, "provinsi": "Jawa Timur", "kecamatan": "Wonokromo", "kota": "Kota Surabaya"}, "name": "Surabaya - Adityawarman", "address": "Jl. Adityawarman no.53 , Kel. Sawunggaling , Kec. Wonokromo , Surabaya"}, {"detail": {"kelurahan": "Mojolangu", "longitude": 112.6281656, "formattedAddr": "Ruko Soekarno Hatta, Jl. Soekarno Hatta No.82 B, Mojolangu, Kec. Lowokwaru, Kota Malang, Jawa Timur 65141, Indonesia", "latitude": -7.937753099999998, "provinsi": "Jawa Timur", "kecamatan": "Kecamatan Lowokwaru", "kota": "Kota Malang"}, "name": "Malang - Soekarno Hatta", "address": "Ruko Soekarno Hatta , Soekarno Hatta Kav. 2-2A , Malang"}, {"detail": {"kelurahan": "Kotabaru", "longitude": 110.3738592, "formattedAddr": "Jl. Jend. Sudirman No.50, Kotabaru, Gondokusuman, Kota Yogyakarta, Daerah Istimewa Yogyakarta 55224, Indonesia", "latitude": -7.7829905, "provinsi": "Daerah Istimewa Yogyakarta", "kecamatan": "Gondokusuman", "kota": "Kota Yogyakarta"}, "name": "Yogyakarta - Sudirman 50", "address": "Jl. Jend. Sudirman No. 50 , Kel.Kotabaru , Kec.Gondokusuman , Yogyakarta"}, {"detail": {"kelurahan": "Suryatmajan", "longitude": 110.3681896, "formattedAddr": "Jl. Mataram No.54, 001, Suryatmajan, Danurejan, Kota Yogyakarta, Daerah Istimewa Yogyakarta 55213, Indonesia", "latitude": -7.7941027, "provinsi": "Daerah Istimewa Yogyakarta", "kecamatan": "Danurejan", "kota": "Kota Yogyakarta"}, "name": "Yogyakarta - Mataram", "address": "Jl. Mataram No. 54 , Kel.Suryatmajan , Kec.Danurejan , Yogyakarta"}, {"detail": {"kelurahan": "Warungboto", "longitude": 110.3882539, "formattedAddr": "Jl. Kusumanegara No.66, Warungboto, Umbulharjo, Kota Yogyakarta, Daerah Istimewa Yogyakarta 55164, Indonesia", "latitude": -7.8021177, "provinsi": "Daerah Istimewa Yogyakarta", "kecamatan": "Umbulharjo", "kota": "Kota Yogyakarta"}, "name": "Yogyakarta - Kusumanegara", "address": "Jl. Kusumanegara No 66 , Kel.Warungboto , Kec.Umbulharjo , Yogyakarta"}, {"detail": {"kelurahan": "Caturtunggal", "longitude": 110.4131974, "formattedAddr": "Jl. Babarsari No.44, Caturtunggal, Kec. Depok, Kabupaten Sleman, Daerah Istimewa Yogyakarta 55281, Indonesia", "latitude": -7.773960699999999, "provinsi": "Daerah Istimewa Yogyakarta", "kecamatan": "Kecamatan Depok", "kota": "Kabupaten Sleman"}, "name": "Yogyakarta - UAJ Babarsari", "address": "Jl. Babarsari 44 , Kel.Catur Tunggal , Kec.Depok , Sleman"}, {"detail": {"kelurahan": "Condongcatur", "longitude": 110.3864933, "formattedAddr": "Jl. Kaliurang No.14, Condongcatur, Kec. Depok, Kabupaten Sleman, Daerah Istimewa Yogyakarta 55281, Indonesia", "latitude": -7.7497455, "provinsi": "Daerah Istimewa Yogyakarta", "kecamatan": "Kecamatan Depok", "kota": "Kabupaten Sleman"}, "name": "Yogyakarta - Kolombo", "address": "Jl. Kaliurang 14A , Kel.Condongcatur , Kec.Depok , Sleman"}, {"detail": null, "name": "Yogyakarta - Sanata Darma", "address": "Jl. Affandi (Gejayan) Mrican, Tromol Pos 29 , Kel.Catur Tunggal , Kec.Depok , Sleman"}, {"detail": {"kelurahan": "Demangan", "longitude": 110.3894764, "formattedAddr": "Jl. Laksda Adisucipto No.31, Demangan, Gondokusuman, Kota Yogyakarta, Daerah Istimewa Yogyakarta 55221, Indonesia", "latitude": -7.783128499999999, "provinsi": "Daerah Istimewa Yogyakarta", "kecamatan": "Gondokusuman", "kota": "Kota Yogyakarta"}, "name": "Yogyakarta - Adi Sucipto", "address": "Jl. Laksda Adisucipto No 31 , Kel.Demangan , Kec.Gondokusuman , Yogyakarta"}, {"detail": {"kelurahan": "Brontokusuman", "longitude": 110.3679221, "formattedAddr": "Jl. Parangtritis, Brontokusuman, Mergangsan, Kota Yogyakarta, Daerah Istimewa Yogyakarta, Indonesia", "latitude": -7.8209586, "provinsi": "Daerah Istimewa Yogyakarta", "kecamatan": "Mergangsan", "kota": "Kota Yogyakarta"}, "name": "Yogyakarta - Parang Tritis", "address": "Jl. Parangtritis 115 D , Kel.Mergangsan , Kec.Brontokusuman , Yogyakarta"}, {"detail": {"kelurahan": "Kricak", "longitude": 110.3611548, "formattedAddr": "Jl. Magelang No.116, Kricak, Tegalrejo, Kota Yogyakarta, Daerah Istimewa Yogyakarta 55242, Indonesia", "latitude": -7.775696900000001, "provinsi": "Daerah Istimewa Yogyakarta", "kecamatan": "Tegalrejo", "kota": "Kota Yogyakarta"}, "name": "Yogyakarta - Karangwaru", "address": "Jl. Magelang 116 , Kel.Karangwaru , Kec.Tegalrejo , Yogyakarta"}, {"detail": null, "name": "Yogyakarta - UAJ Mrican", "address": "Universitas Atmajaya , Jl. Demangan Baru No.29 A , Sleman"}, {"detail": {"kelurahan": "Gowongan", "longitude": 110.3692463, "formattedAddr": "Jl. Jend. Sudirman No.13, Gowongan, Jetis, Kota Yogyakarta, Daerah Istimewa Yogyakarta 55233, Indonesia", "latitude": -7.7828468, "provinsi": "Daerah Istimewa Yogyakarta", "kecamatan": "Jetis", "kota": "Kota Yogyakarta"}, "name": "Yogyakarta - Sudirman 13", "address": "Jl. Jend. Sudirman 13 , Kel.Cokrodiningratan , Kec.Jetis , Yogyakarta"}, {"detail": {"kelurahan": "Keparakan", "longitude": 110.3690747, "formattedAddr": "Jl. Brigjen Katamso No.136, Keparakan, Mergangsan, Kota Yogyakarta, Daerah Istimewa Yogyakarta 55131, Indonesia", "latitude": -7.808627100000001, "provinsi": "Daerah Istimewa Yogyakarta", "kecamatan": "Mergangsan", "kota": "Kota Yogyakarta"}, "name": "Yogyakarta - Katamso", "address": "Jl. Brigjen Katamso No.136 A , Kel.Parakan , Kec.Mergangsan , Yogyakarta"}, {"detail": {"kelurahan": "Demangan", "longitude": 110.388212, "formattedAddr": "Ps. Demangan, Jl. Affandi No.284, Demangan, Gondokusuman, Kota Yogyakarta, Daerah Istimewa Yogyakarta 55221, Indonesia", "latitude": -7.780928, "provinsi": "Daerah Istimewa Yogyakarta", "kecamatan": "Gondokusuman", "kota": "Kota Yogyakarta"}, "name": "Yogyakarta - Gejayan", "address": "Jl. Gejayan No. 26A , Kel.Demangan , Kec.Gondokusuman , Yogyakarta"}, {"detail": null, "name": "Yogyakarta - RS Panti Rapih", "address": "Rs Panti Rapih , Jl. Cik Ditiro No. 30 , Yogyakarta"}, {"detail": null, "name": "Yogyakarta - Godean", "address": "Ruko Banyuraden No. 7 , Jl. Godean Km. 5,5 , Sleman"}, {"detail": null, "name": "Yogyakarta - Universitas Sanata Pahingan", "address": "Kampus Univ. Sanata Dharma , Sleman"}, {"detail": {"kelurahan": "Sukasari", "longitude": 106.6439468, "formattedAddr": "Jl. Jend. Sudirman No.50, Sukasari, Kec. Tangerang, Kota Tangerang, Banten 15118, Indonesia", "latitude": -6.1815899, "provinsi": "Banten", "kecamatan": "Kecamatan Tangerang", "kota": "Kota Tangerang"}, "name": "Yogyakarta - Sudirman", "address": "Jl. Jend. Sudirman No. 50"}, {"detail": null, "name": "Bali - Singaraja", "address": "Jl. Ahmad Yani No.55 , Kel.Kaliuntu , Kec.Buleleng"}, {"detail": null, "name": "Bali - Thamrin", "address": "Jl. MH Thamrin No.77 , Kel. Pemecutan , Kec. Denpasar Barat , Denpasar"}, {"detail": null, "name": "Bali - Teuku Umar", "address": "Rukan Telkom , Jl. Teuku Umar No.4-5 , Denpasar"}, {"detail": {"kelurahan": "Dangin Puri Kaja", "longitude": 115.2207321, "formattedAddr": "Jl. Gatot Subroto II No.89, Dangin Puri Kaja, Denpasar Utara, Kota Denpasar, Bali 80234, Indonesia", "latitude": -8.6381676, "provinsi": "Bali", "kecamatan": "Denpasar Utara", "kota": "Kota Denpasar"}, "name": "Bali - Gatot Subroto", "address": "Jl. Gatot Subroto No.89C , Kel.Dangin Puri Kaja , Kec.Denpasar Utara , Denpasar"}, {"detail": {"kelurahan": "Ubud", "longitude": 115.2615133, "formattedAddr": "Jl. Raya Ubud, Ubud, Kabupaten Gianyar, Bali 80571, Indonesia", "latitude": -8.5064838, "provinsi": "Bali", "kecamatan": "Ubud", "kota": "Kabupaten Gianyar"}, "name": "Bali - Ubud", "address": "Jl. Raya Ubud No.392 , Kel.Ubud , Kec.Ubud , Gianyar"}, {"detail": {"kelurahan": "Dangin Puri Kangin", "longitude": 115.2223305, "formattedAddr": "Jl. Melati No.29, Dangin Puri Kangin, Denpasar Utara, Kota Denpasar, Bali 80236, Indonesia", "latitude": -8.6538556, "provinsi": "Bali", "kecamatan": "Denpasar Utara", "kota": "Kota Denpasar"}, "name": "Bali - Melati", "address": "Jl. Melati No.29 , Kel.Dangin Puri Kaja , Kec.Denpasar Utara , Denpasar"}, {"detail": null, "name": "Bali - Taman Rama Ubung", "address": "Taman Rama School , Jl. Hos Cokroaminoto No.382 , Denpasar"}, {"detail": null, "name": "Bali - Taman Rama Jimbaran", "address": "Taman Rama School, Komplek Perumahan Puri Gading ,Badung"}, {"detail": null, "name": "Bali - Sanur", "address": "Komplek Pertokoan Sanur Raya , Jl. By Pass Ngurah Rai No.29-30 , Denpasar"}, {"detail": null, "name": "Bali - Nusa Dua", "address": "Komplek Pertokoan Tragia Blok E III No 29 , Jl. By Pass Ngurah Rai , Badung"}, {"detail": {"kelurahan": "Jimbaran", "longitude": 115.1858077, "formattedAddr": "Gg. Taman Anyar No.88, Jimbaran, Kuta Sel., Kabupaten Badung, Bali 80361, Indonesia", "latitude": -8.7849901, "provinsi": "Bali", "kecamatan": "Kuta Selatan", "kota": "Kabupaten Badung"}, "name": "Bali - Kuta Graha", "address": "Jl. By Pass Ngurah Rai No.88 , Kel.Kuta , Kec.Kuta , Badung"}, {"detail": null, "name": "Bali - Dewi Sartika", "address": "Komplek Duta Plaza Blok I F-G , Jl. Dewi Sartika , Denpasar"}, {"detail": {"kelurahan": "Kerobokan Kelod", "longitude": 115.1663593, "formattedAddr": "Jl. Raya Kerobokan No.108, Kerobokan Kelod, Kuta Utara, Kabupaten Badung, Bali 80361, Indonesia", "latitude": -8.6660493, "provinsi": "Bali", "kecamatan": "Kuta Utara", "kota": "Kabupaten Badung"}, "name": "Bali - Kerobokan", "address": "Jl. Raya Kerobokan 108"}, {"detail": null, "name": "Bali - Thamrin", "address": "Jl. Mh Thamrin No.77 , Kel.Pemecutan , Kec.Denpasar Barat , Denpasar"}, {"detail": null, "name": "Denpasar - Mall Galeria", "address": "Mal Bali Galeria, Lantai 2A 08 , Jl. By Pass Ngurah Rai Simpang Dewa Ruci , Badung"}]