{"diagnostic":{"status":200,"elapsetime":"0.1094","memoryusage":"5.9MB","unix_timestamp":1457359372,"confirm":"success","lang":"en","currency":"IDR"},"output_type":"json","stations":{"station":[{"station_name":"aekloba","city_name":"Labuhan Batu","station_code":"AKB","latitude":"2.26705500000000000000","longitude":"100.08064300000000000000"},{"station_name":"alastuwa","city_name":"Semarang","station_code":"ATA","latitude":"-6.98444700000000000000","longitude":"110.47637000000000000000"},{"station_name":"ambarawa","city_name":"Lampung Tengah","station_code":"ABR","latitude":"-7.26472200000000000000","longitude":"110.40222200000000000000"},{"station_name":"angke","city_name":" ","station_code":"AK","latitude":null,"longitude":"0.00000000000000000000"},{"station_name":"argopuro","city_name":" ","station_code":"AGO","latitude":null,"longitude":"0.00000000000000000000"},{"station_name":"arjasa","city_name":" ","station_code":"AJ","latitude":null,"longitude":"0.00000000000000000000"},{"station_name":"arjawinangun","city_name":"Cirebon","station_code":"AWN","latitude":"-6.64971000000000000000","longitude":"108.42422200000000000000"},{"station_name":"awipari ","city_name":"Tasikmalaya","station_code":"AW","latitude":"-7.35318800000000000000","longitude":"108.27103600000000000000"},{"station_name":"babadan ","city_name":"Madiun","station_code":"BBD","latitude":"-7.50564200000000000000","longitude":"111.55386700000000000000"},{"station_name":"babakan ","city_name":"Cirebon","station_code":"BBK","latitude":"-6.86133700000000000000","longitude":"108.72131500000000000000"},{"station_name":"babat ","city_name":"Lamongan","station_code":"BBT","latitude":"-7.10332000000000000000","longitude":"112.17684700000000000000"},{"station_name":"bagor ","city_name":"Nganjuk","station_code":"BGR","latitude":"-7.57325500000000000000","longitude":"111.86094800000000000000"},{"station_name":"bajalinggei","city_name":"Serdang Bedagai","station_code":"BJL","latitude":"0.00000000000000000000","longitude":"0.00000000000000000000"},{"station_name":"bamban","city_name":" ","station_code":"BMB","latitude":null,"longitude":"0.00000000000000000000"},{"station_name":"bandar kalipah","city_name":"Deli Serdang","station_code":"BAP","latitude":"3.55323500000000000000","longitude":"98.69617200000000000000"},{"station_name":"bandar tinggi","city_name":"Pematang Siantar","station_code":"BDT","latitude":"3.17000000000000000000","longitude":"99.38000000000000000000"},{"station_name":"bandung","city_name":"Bandung","station_code":"BD","latitude":"-6.91278600000000000000","longitude":"107.60288200000000000000"},{"station_name":"bangil","city_name":"Pasuruan","station_code":"BG","latitude":"-7.60008700000000000000","longitude":"112.78000100000000000000"},{"station_name":"bangoduwa","city_name":"Cirebon","station_code":"BDW","latitude":"-6.66288700000000000000","longitude":"108.45977200000000000000"},{"station_name":"bangsalsari","city_name":" ","station_code":"BSS","latitude":null,"longitude":"0.00000000000000000000"},{"station_name":"banjar","city_name":"Banjar","station_code":"BJR","latitude":"-7.36676600000000000000","longitude":"108.54492200000000000000"},{"station_name":"banjarsari","city_name":" ","station_code":"BJI","latitude":null,"longitude":"0.00000000000000000000"},{"station_name":"banyuwangi baru","city_name":"Banyuwangi","station_code":"BW","latitude":"-8.13347700000000000000","longitude":"114.39895000000000000000"},{"station_name":"barat","city_name":"Magetan","station_code":"BAT","latitude":"-7.56221100000000000000","longitude":"111.45122400000000000000"},{"station_name":"baron","city_name":"Nganjuk","station_code":"BRN","latitude":"-7.60272500000000000000","longitude":"112.03917100000000000000"},{"station_name":"batang","city_name":"Batang","station_code":"BTG","latitude":"-6.90746900000000000000","longitude":"109.73021100000000000000"},{"station_name":"batang kuis","city_name":"Deli Serdang","station_code":"BTK","latitude":"3.63399300000000000000","longitude":"98.80266700000000000000"},{"station_name":"batu tulis","city_name":" ","station_code":"BTT","latitude":null,"longitude":"0.00000000000000000000"},{"station_name":"baturaja","city_name":"Ogan Komering Ulu","station_code":"BTA","latitude":"-2.92624000000000000000","longitude":"104.69730400000000000000"},{"station_name":"bekasi","city_name":"Bekasi","station_code":"BKS","latitude":"-6.23495200000000000000","longitude":"106.99715900000000000000"},{"station_name":"bekri","city_name":" ","station_code":"BKI","latitude":"0.00000000000000000000","longitude":"0.00000000000000000000"},{"station_name":"benowo","city_name":" ","station_code":"BNW","latitude":null,"longitude":"0.00000000000000000000"},{"station_name":"binjai","city_name":"Binjai","station_code":"BIJ","latitude":"3.62703300000000000000","longitude":"98.49444900000000000000"},{"station_name":"blambanganpagar","city_name":" ","station_code":"BBA","latitude":"-4.89389000000000000000","longitude":"105.07214500000000000000"},{"station_name":"blambanganumpu","city_name":"Way Kanan","station_code":"BBU","latitude":"-4.49815700000000000000","longitude":"104.52017600000000000000"},{"station_name":"blimbing ","city_name":"Malang","station_code":"BMG","latitude":"-7.93989600000000000000","longitude":"112.64447500000000000000"},{"station_name":"blimbing pendopo","city_name":" ","station_code":"BIB","latitude":"0.00000000000000000000","longitude":"0.00000000000000000000"},{"station_name":"blitar","city_name":"Blitar","station_code":"BL","latitude":"-8.10126800000000000000","longitude":"112.16276600000000000000"},{"station_name":"bogor","city_name":" ","station_code":"BOO","latitude":"-6.59459800000000000000","longitude":"106.79058000000000000000"},{"station_name":"boharan ","city_name":"Sidoarjo","station_code":"BH","latitude":"-7.39402500000000000000","longitude":"112.60791100000000000000"},{"station_name":"bojonegoro","city_name":"Bojonegoro","station_code":"BJ","latitude":"-7.16684300000000000000","longitude":"111.89027000000000000000"},{"station_name":"bojong","city_name":"Ciamis","station_code":"BJG","latitude":"-7.35140100000000000000","longitude":"108.44804000000000000000"},{"station_name":"bowerno","city_name":" ","station_code":"BWO","latitude":null,"longitude":"0.00000000000000000000"},{"station_name":"brambanan","city_name":"Klaten","station_code":"BBN","latitude":"-7.75604700000000000000","longitude":"110.49711900000000000000"},{"station_name":"brebes","city_name":"Brebes","station_code":"BB","latitude":"-6.87425200000000000000","longitude":"109.04235400000000000000"},{"station_name":"brumbung","city_name":"Demak","station_code":"BBG","latitude":"-7.04303600000000000000","longitude":"110.54660100000000000000"},{"station_name":"bulakamba","city_name":"Brebes","station_code":"BKA","latitude":"-6.87122200000000000000","longitude":"108.89647400000000000000"},{"station_name":"bumiayu","city_name":"Brebes","station_code":"BMA","latitude":"-7.23537100000000000000","longitude":"109.01007100000000000000"},{"station_name":"bungamas","city_name":" ","station_code":"BGM","latitude":null,"longitude":"0.00000000000000000000"},{"station_name":"candimas","city_name":" ","station_code":"CMS","latitude":null,"longitude":"0.00000000000000000000"},{"station_name":"caruban","city_name":"Madiun","station_code":"CRB","latitude":"-7.54867700000000000000","longitude":"111.67619700000000000000"},{"station_name":"catang","city_name":" ","station_code":"CT","latitude":null,"longitude":"0.00000000000000000000"},{"station_name":"cepu","city_name":"Blora","station_code":"CU","latitude":"-7.59217500000000000000","longitude":"112.10053900000000000000"},{"station_name":"cerme","city_name":" ","station_code":"CME","latitude":null,"longitude":"0.00000000000000000000"},{"station_name":"ciamis","city_name":"Ciamis","station_code":"CI","latitude":"-7.00000000000000000000","longitude":"108.00000000000000000000"},{"station_name":"cianjur","city_name":" ","station_code":"CJ","latitude":"-6.82457900000000000000","longitude":"107.14282800000000000000"},{"station_name":"ciawi","city_name":"Tasikmalaya","station_code":"CAW","latitude":"-7.16510800000000000000","longitude":"108.15417800000000000000"},{"station_name":"cibadak","city_name":" ","station_code":"CBD","latitude":"-6.88822800000000000000","longitude":"106.78035300000000000000"},{"station_name":"cibatu","city_name":"Garut","station_code":"CB","latitude":"-7.10872800000000000000","longitude":"107.96964200000000000000"},{"station_name":"cibeber","city_name":" ","station_code":"CBB","latitude":"-6.93759900000000000000","longitude":"107.12128900000000000000"},{"station_name":"cibungur","city_name":" ","station_code":"CBR","latitude":null,"longitude":"0.00000000000000000000"},{"station_name":"cicalengka","city_name":"Bandung","station_code":"CCL","latitude":"-6.99588500000000000000","longitude":"107.84272000000000000000"},{"station_name":"cicayur","city_name":" ","station_code":"CCY","latitude":null,"longitude":"0.00000000000000000000"},{"station_name":"cicurug","city_name":" ","station_code":"CCR","latitude":"-6.79027500000000000000","longitude":"106.77941900000000000000"},{"station_name":"ciganea","city_name":" ","station_code":"CA","latitude":null,"longitude":"0.00000000000000000000"},{"station_name":"cigombong","city_name":" ","station_code":"CGB","latitude":null,"longitude":"0.00000000000000000000"},{"station_name":"cikadongdong ","city_name":"Bandung Barat","station_code":"CD","latitude":"-6.71588300000000000000","longitude":"107.39082100000000000000"},{"station_name":"cikampek","city_name":"Karawang","station_code":"CKP","latitude":"-6.40706800000000000000","longitude":"107.45649800000000000000"},{"station_name":"cikarang","city_name":" ","station_code":"CKR","latitude":null,"longitude":"0.00000000000000000000"},{"station_name":"cikeusal","city_name":" ","station_code":"CKL","latitude":null,"longitude":"0.00000000000000000000"},{"station_name":"cikudapateuh","city_name":" ","station_code":"CTH","latitude":null,"longitude":"0.00000000000000000000"},{"station_name":"cilacap","city_name":"Cilacap","station_code":"CP","latitude":"-7.71647800000000000000","longitude":"109.01197000000000000000"},{"station_name":"cilaku","city_name":" ","station_code":"CLK","latitude":null,"longitude":"0.00000000000000000000"},{"station_name":"cilame","city_name":" ","station_code":"CLE","latitude":null,"longitude":"0.00000000000000000000"},{"station_name":"ciledug","city_name":"Cirebon","station_code":"CLD","latitude":"-6.89617800000000000000","longitude":"108.75697700000000000000"},{"station_name":"cilegeh ","city_name":"Indramayu","station_code":"CLH","latitude":"-6.48951400000000000000","longitude":"108.03723300000000000000"},{"station_name":"cilegon","city_name":" ","station_code":"CLG","latitude":"-6.01963500000000000000","longitude":"106.05311300000000000000"},{"station_name":"cilejit","city_name":" ","station_code":"CJT","latitude":null,"longitude":"0.00000000000000000000"},{"station_name":"cimahi","city_name":"Cimahi","station_code":"CMI","latitude":"-6.87140300000000000000","longitude":"107.55538000000000000000"},{"station_name":"cimekar","city_name":" ","station_code":"CMK","latitude":"-6.94964300000000000000","longitude":"107.71445500000000000000"},{"station_name":"cimindi","city_name":" ","station_code":"CMD","latitude":null,"longitude":"0.00000000000000000000"},{"station_name":"cipari","city_name":"Cilacap","station_code":"CPI","latitude":"-7.43910300000000000000","longitude":"108.76307100000000000000"},{"station_name":"cipeundeuy","city_name":"Garut","station_code":"CPD","latitude":"-7.10432100000000000000","longitude":"108.08153300000000000000"},{"station_name":"cipunegara","city_name":"Subang","station_code":"CRA","latitude":"-6.45493200000000000000","longitude":"107.85608800000000000000"},{"station_name":"cirebon","city_name":"Cirebon","station_code":"CN","latitude":"-6.70478600000000000000","longitude":"108.55672400000000000000"},{"station_name":"cirebon prujakan","city_name":"Cirebon","station_code":"CNP","latitude":"-6.72985700000000000000","longitude":"108.56728100000000000000"},{"station_name":"cireungas","city_name":" ","station_code":"CRG","latitude":null,"longitude":"0.00000000000000000000"},{"station_name":"ciroyom","city_name":" ","station_code":"CIR","latitude":null,"longitude":"0.00000000000000000000"},{"station_name":"cisaat","city_name":" ","station_code":"CSA","latitude":"-6.91396300000000000000","longitude":"106.88749400000000000000"},{"station_name":"cisauk","city_name":" ","station_code":"CSK","latitude":null,"longitude":"0.00000000000000000000"},{"station_name":"cisomang","city_name":" ","station_code":"CG","latitude":null,"longitude":"0.00000000000000000000"},{"station_name":"citeras","city_name":" ","station_code":"CTR","latitude":null,"longitude":"0.00000000000000000000"},{"station_name":"comal","city_name":"Pemalang","station_code":"CO","latitude":"-6.90959900000000000000","longitude":"109.53862700000000000000"},{"station_name":"curahmalang","city_name":" ","station_code":"CRM","latitude":null,"longitude":"0.00000000000000000000"},{"station_name":"daru","city_name":" ","station_code":"DAR","latitude":null,"longitude":"0.00000000000000000000"},{"station_name":"dawuan","city_name":" ","station_code":"DWN","latitude":null,"longitude":"0.00000000000000000000"},{"station_name":"denpasar","city_name":" ","station_code":"DEN","latitude":null,"longitude":"0.00000000000000000000"},{"station_name":"dolokmerangir","city_name":"Simalungun","station_code":"DMR","latitude":"3.12048300000000000000","longitude":"99.15882100000000000000"},{"station_name":"doplang","city_name":"Blora","station_code":"DPL","latitude":"-7.16682200000000000000","longitude":"111.29584900000000000000"},{"station_name":"duduk","city_name":" ","station_code":"DD","latitude":null,"longitude":"0.00000000000000000000"},{"station_name":"duku","city_name":" ","station_code":"DUK","latitude":null,"longitude":"0.00000000000000000000"},{"station_name":"duri","city_name":" ","station_code":"DU","latitude":null,"longitude":"0.00000000000000000000"},{"station_name":"gadobangkong","city_name":" ","station_code":"GK","latitude":null,"longitude":"0.00000000000000000000"},{"station_name":"gambir","city_name":"Jakarta Pusat","station_code":"GMR","latitude":"-6.17664400000000000000","longitude":"106.83057500000000000000"},{"station_name":"gandasolih","city_name":" ","station_code":"GDS","latitude":null,"longitude":"0.00000000000000000000"},{"station_name":"gandrungmangun","city_name":"Cilacap","station_code":"GDM","latitude":"-7.50976900000000000000","longitude":"108.83902100000000000000"},{"station_name":"garahan","city_name":" ","station_code":"GRN","latitude":null,"longitude":"0.00000000000000000000"},{"station_name":"garum","city_name":"Blitar","station_code":"GRM","latitude":"-8.07360200000000000000","longitude":"112.21683300000000000000"},{"station_name":"gedangan","city_name":"Sidoarjo","station_code":"GDG","latitude":"-7.38913100000000000000","longitude":"112.72824500000000000000"},{"station_name":"gedebage","city_name":"Bandung","station_code":"GDB","latitude":"-6.94193400000000000000","longitude":"107.69197900000000000000"},{"station_name":"gembong","city_name":" ","station_code":"GEB","latitude":null,"longitude":"0.00000000000000000000"},{"station_name":"geneng","city_name":"Ngawi","station_code":"GG","latitude":"-7.49797300000000000000","longitude":"111.41905900000000000000"},{"station_name":"giham","city_name":" ","station_code":"GHM","latitude":null,"longitude":"0.00000000000000000000"},{"station_name":"glenmore","city_name":"Banyuwangi","station_code":"GLM","latitude":"-8.30526500000000000000","longitude":"114.09173000000000000000"},{"station_name":"gombong","city_name":"Kebumen","station_code":"GB","latitude":"-7.61040300000000000000","longitude":"109.50953000000000000000"},{"station_name":"grati","city_name":"Pasuruan","station_code":"GI","latitude":"-7.73767700000000000000","longitude":"112.98455700000000000000"},{"station_name":"gubug","city_name":" ","station_code":"GUB","latitude":null,"longitude":"0.00000000000000000000"},{"station_name":"gumilir","city_name":"Cilacap","station_code":"GM","latitude":"-7.68498500000000000000","longitude":"109.04280400000000000000"},{"station_name":"gundih","city_name":"Grobogan","station_code":"GD","latitude":"-7.20587700000000000000","longitude":"110.85851000000000000000"},{"station_name":"gunungmegang ","city_name":"Muara Enim","station_code":"GNM","latitude":"-3.45525000000000000000","longitude":"103.85350200000000000000"},{"station_name":"hajipemanggilan","city_name":" ","station_code":"HJP","latitude":null,"longitude":"0.00000000000000000000"},{"station_name":"haurgeulis","city_name":"Indramayu","station_code":"HGL","latitude":"-6.47108300000000000000","longitude":"107.95092000000000000000"},{"station_name":"haurpugur","city_name":"Bandung","station_code":"HRP","latitude":"-6.98023000000000000000","longitude":"107.79750800000000000000"},{"station_name":"hengelo","city_name":"Karo","station_code":"HL","latitude":"2.92246900000000000000","longitude":"99.72908000000000000000"},{"station_name":"ijo","city_name":"Kebumen","station_code":"IJ","latitude":"-7.61531600000000000000","longitude":"109.44635900000000000000"},{"station_name":"indralaya","city_name":" ","station_code":"IDR","latitude":null,"longitude":"0.00000000000000000000"},{"station_name":"indralaya","city_name":" ","station_code":"IDY","latitude":null,"longitude":"0.00000000000000000000"},{"station_name":"jakarta kota","city_name":"Jakarta Barat","station_code":"JAKK","latitude":"-6.13758900000000000000","longitude":"106.81467200000000000000"},{"station_name":"jambon","city_name":" ","station_code":"JBN","latitude":null,"longitude":"0.00000000000000000000"},{"station_name":"jambu baru","city_name":" ","station_code":"JBU","latitude":null,"longitude":"0.00000000000000000000"},{"station_name":"jatibarang","city_name":"Indramayu","station_code":"JTB","latitude":"-6.47284200000000000000","longitude":"108.30580800000000000000"},{"station_name":"jatinegara","city_name":"Jakarta Timur","station_code":"JNG","latitude":"-6.21495400000000000000","longitude":"106.87040300000000000000"},{"station_name":"jatiroto","city_name":"Jember","station_code":"JTR","latitude":"-8.12339200000000000000","longitude":"113.36469600000000000000"},{"station_name":"jember","city_name":"Jember","station_code":"JR","latitude":"-8.16465800000000000000","longitude":"113.70388300000000000000"},{"station_name":"jenar","city_name":"Purworejo","station_code":"JN","latitude":"-7.79091400000000000000","longitude":"110.00299200000000000000"},{"station_name":"jeruklegi","city_name":"Cilacap","station_code":"JRL","latitude":"-7.58745300000000000000","longitude":"109.01493100000000000000"},{"station_name":"jombang","city_name":"Jombang","station_code":"JG","latitude":"-7.55869600000000000000","longitude":"112.23153800000000000000"},{"station_name":"kalibalangan","city_name":" ","station_code":"KAG","latitude":null,"longitude":"0.00000000000000000000"},{"station_name":"kalibaru","city_name":"Banyuwangi","station_code":"KBR","latitude":"-8.28849100000000000000","longitude":"113.98038600000000000000"},{"station_name":"kalibodri","city_name":"Kendal","station_code":"KBD","latitude":"-6.97394700000000000000","longitude":"110.14787400000000000000"},{"station_name":"kalisat","city_name":"Jember","station_code":"KLT","latitude":"-8.12100800000000000000","longitude":"113.85037400000000000000"},{"station_name":"kalisetail","city_name":"Banyuwangi","station_code":"KSL","latitude":"-8.33732500000000000000","longitude":"114.15198300000000000000"},{"station_name":"kalitidu","city_name":"Bojonegoro","station_code":"KIT","latitude":"-7.13091500000000000000","longitude":"111.78056700000000000000"},{"station_name":"kaliwungu","city_name":"Kendal","station_code":"KLN","latitude":"-6.95888900000000000000","longitude":"110.25417600000000000000"},{"station_name":"kampung bandan","city_name":" ","station_code":"KPB","latitude":null,"longitude":"0.00000000000000000000"},{"station_name":"kandangan","city_name":" ","station_code":"KDA","latitude":null,"longitude":"0.00000000000000000000"},{"station_name":"kapas","city_name":" ","station_code":"KPS","latitude":null,"longitude":"0.00000000000000000000"},{"station_name":"karang sari","city_name":" ","station_code":"KRAI","latitude":null,"longitude":"0.00000000000000000000"},{"station_name":"karang tengah","city_name":" ","station_code":"KE","latitude":null,"longitude":"0.00000000000000000000"},{"station_name":"karangantu","city_name":" ","station_code":"KRA","latitude":null,"longitude":"0.00000000000000000000"},{"station_name":"karanganyar","city_name":"Kebumen","station_code":"KA","latitude":"-7.63511600000000000000","longitude":"109.57830200000000000000"},{"station_name":"karangasem","city_name":"Banyuwangi","station_code":"KNE","latitude":"-8.22162100000000000000","longitude":"114.34094000000000000000"},{"station_name":"karangjati","city_name":"Grobogan","station_code":"KGT","latitude":"-7.09505800000000000000","longitude":"110.76630600000000000000"},{"station_name":"karangsari","city_name":"Banyumas","station_code":"KRR","latitude":"-7.38598100000000000000","longitude":"109.11651100000000000000"},{"station_name":"karangsuwung","city_name":"Cirebon","station_code":"KRW","latitude":"-6.84464500000000000000","longitude":"108.63940000000000000000"},{"station_name":"karawang","city_name":" ","station_code":"KW","latitude":null,"longitude":"0.00000000000000000000"},{"station_name":"kawunganten","city_name":"Cilacap","station_code":"KWG","latitude":"-7.59316400000000000000","longitude":"108.91962600000000000000"},{"station_name":"kebasen","city_name":"Banyumas","station_code":"KBS","latitude":"-7.53272300000000000000","longitude":"109.21272800000000000000"},{"station_name":"kebayoran","city_name":" ","station_code":"KBY","latitude":null,"longitude":"0.00000000000000000000"},{"station_name":"kebonromo","city_name":"Sragen","station_code":"KRO","latitude":"-7.39264200000000000000","longitude":"111.06907400000000000000"},{"station_name":"kebumen","city_name":"Kebumen","station_code":"KM","latitude":"-7.66922800000000000000","longitude":"109.65106500000000000000"},{"station_name":"kedinding","city_name":" ","station_code":"KDN","latitude":null,"longitude":"0.00000000000000000000"},{"station_name":"kediri","city_name":"Kediri","station_code":"KD","latitude":"-7.81703600000000000000","longitude":"112.01465400000000000000"},{"station_name":"kedokangabus","city_name":"Indramayu","station_code":"KAB","latitude":"-6.46403600000000000000","longitude":"108.09594200000000000000"},{"station_name":"kedungbanteng","city_name":"Sragen","station_code":"KDB","latitude":"111.11374900000000000000","longitude":"-7.40609000000000000000"},{"station_name":"kedunggalar","city_name":"Ngawi","station_code":"KG","latitude":"-7.42673000000000000000","longitude":"111.30815500000000000000"},{"station_name":"kedunggedeh","city_name":" ","station_code":"KDH","latitude":null,"longitude":"0.00000000000000000000"},{"station_name":"kedungjati ","city_name":"Grobogan","station_code":"KEJ","latitude":"-7.16342600000000000000","longitude":"110.63500600000000000000"},{"station_name":"kemayoran","city_name":" ","station_code":"KMO","latitude":null,"longitude":"0.00000000000000000000"},{"station_name":"kemiri","city_name":" ","station_code":"KMR","latitude":null,"longitude":"0.00000000000000000000"},{"station_name":"kemranjen","city_name":"Banyumas","station_code":"KJ","latitude":"-7.62279700000000000000","longitude":"109.31117500000000000000"},{"station_name":"kepanjen","city_name":"Malang","station_code":"KPN","latitude":"-8.13296700000000000000","longitude":"112.57289200000000000000"},{"station_name":"kertapati","city_name":"Palembang","station_code":"KPT","latitude":"-3.04444000000000000000","longitude":"104.72959800000000000000"},{"station_name":"kertasemaya ","city_name":"Indramayu","station_code":"KTM","latitude":"-6.51668600000000000000","longitude":"108.34896000000000000000"},{"station_name":"kertosono","city_name":"Nganjuk","station_code":"KTS","latitude":"-7.59244100000000000000","longitude":"112.10324200000000000000"},{"station_name":"kesamben","city_name":"Blitar","station_code":"KSB","latitude":"-8.14607300000000000000","longitude":"112.35406600000000000000"},{"station_name":"ketanggungan","city_name":"Brebes","station_code":"KGG","latitude":"-6.94034700000000000000","longitude":"108.89310500000000000000"},{"station_name":"ketanggungan barat","city_name":"Brebes","station_code":"KGB","latitude":"-6.92919600000000000000","longitude":"108.85627300000000000000"},{"station_name":"ketapang","city_name":" ","station_code":"KTP","latitude":null,"longitude":"0.00000000000000000000"},{"station_name":"kiaracondong","city_name":"Bandung","station_code":"KAC","latitude":"-6.92530300000000000000","longitude":"107.64650500000000000000"},{"station_name":"kisaran","city_name":"Asahan","station_code":"KIS","latitude":"2.98617700000000000000","longitude":"99.61968400000000000000"},{"station_name":"klakah","city_name":"Lumajang","station_code":"KK","latitude":"-7.99319200000000000000","longitude":"113.25487400000000000000"},{"station_name":"klari","city_name":" ","station_code":"KLI","latitude":null,"longitude":"0.00000000000000000000"},{"station_name":"klaten","city_name":"Klaten","station_code":"KT","latitude":"-7.70440000000000000000","longitude":"110.59859300000000000000"},{"station_name":"kosambi","city_name":" ","station_code":"KOS","latitude":null,"longitude":"0.00000000000000000000"},{"station_name":"kotabumi","city_name":" ","station_code":"KB","latitude":"0.00000000000000000000","longitude":"0.00000000000000000000"},{"station_name":"kotapadang","city_name":" ","station_code":"KOP","latitude":null,"longitude":"0.00000000000000000000"},{"station_name":"kotok","city_name":"Jember","station_code":"KTK","latitude":"-8.12023200000000000000","longitude":"113.77569100000000000000"},{"station_name":"kradenan","city_name":" ","station_code":"KNN","latitude":null,"longitude":"0.00000000000000000000"},{"station_name":"kras","city_name":" ","station_code":"KRS","latitude":null,"longitude":"0.00000000000000000000"},{"station_name":"krenceng","city_name":" ","station_code":"KEN","latitude":null,"longitude":"0.00000000000000000000"},{"station_name":"krengseng","city_name":"Batang","station_code":"KNS","latitude":"-6.94690700000000000000","longitude":"110.02354900000000000000"},{"station_name":"kretek","city_name":"Brebes","station_code":"KRT","latitude":"-7.30606900000000000000","longitude":"109.04303300000000000000"},{"station_name":"krian","city_name":"Sidoarjo","station_code":"KRN","latitude":"-7.41045200000000000000","longitude":"112.58615100000000000000"},{"station_name":"kroya","city_name":"Cilacap","station_code":"KYA","latitude":"-7.63298400000000000000","longitude":"109.24522500000000000000"},{"station_name":"kuraitaji","city_name":" ","station_code":"KI","latitude":null,"longitude":"0.00000000000000000000"},{"station_name":"kutoarjo","city_name":"Purworejo","station_code":"KTA","latitude":"-7.72260100000000000000","longitude":"109.90812800000000000000"},{"station_name":"kutowinangun","city_name":"Kebumen","station_code":"KWN","latitude":"-7.72094300000000000000","longitude":"109.73837600000000000000"},{"station_name":"labuanratu","city_name":" ","station_code":"LAR","latitude":"0.00000000000000000000","longitude":"0.00000000000000000000"},{"station_name":"lahat","city_name":"Lahat","station_code":"LT","latitude":"-3.78353900000000000000","longitude":"103.54986500000000000000"},{"station_name":"lamongan","city_name":"Lamongan","station_code":"LMG","latitude":"-7.11395600000000000000","longitude":"112.41573800000000000000"},{"station_name":"lampegan","city_name":" ","station_code":"LP","latitude":null,"longitude":"0.00000000000000000000"},{"station_name":"langen ","city_name":"Banjar","station_code":"LN","latitude":"-7.36425400000000000000","longitude":"108.62148300000000000000"},{"station_name":"larangan ","city_name":"Brebes","station_code":"LR","latitude":"-6.98981500000000000000","longitude":"108.94798300000000000000"},{"station_name":"larangan","city_name":" ","station_code":"LRA","latitude":null,"longitude":"0.00000000000000000000"},{"station_name":"lawang ","city_name":"Malang","station_code":"LW","latitude":"-7.83611000000000000000","longitude":"112.69781800000000000000"},{"station_name":"lebakjero ","city_name":"Bandung","station_code":"LBJ","latitude":"-7.02930000000000000000","longitude":"107.89715800000000000000"},{"station_name":"lebeng","city_name":"Cilacap","station_code":"LBG","latitude":"-7.62039900000000000000","longitude":"109.07698600000000000000"},{"station_name":"leces","city_name":" ","station_code":"LEC","latitude":null,"longitude":"0.00000000000000000000"},{"station_name":"ledokombo","city_name":" ","station_code":"LDO","latitude":null,"longitude":"0.00000000000000000000"},{"station_name":"leles","city_name":"Garut","station_code":"LL","latitude":"-7.11209300000000000000","longitude":"107.88385400000000000000"},{"station_name":"lemahabang","city_name":" ","station_code":"LMB","latitude":null,"longitude":"0.00000000000000000000"},{"station_name":"lempuyangan","city_name":"Yogyakarta","station_code":"LPN","latitude":"-7.79019100000000000000","longitude":"110.37496400000000000000"},{"station_name":"leuwi goong","city_name":" ","station_code":"LO","latitude":null,"longitude":"0.00000000000000000000"},{"station_name":"lidah tanah","city_name":" ","station_code":"LDT","latitude":null,"longitude":"0.00000000000000000000"},{"station_name":"limapuluh","city_name":"Batu Bara","station_code":"LMP","latitude":"3.22278700000000000000","longitude":"99.42249300000000000000"},{"station_name":"linggapura","city_name":"Brebes","station_code":"LG","latitude":"-7.19804300000000000000","longitude":"109.02341700000000000000"},{"station_name":"losari","city_name":"Cirebon","station_code":"LOS","latitude":"-6.81676700000000000000","longitude":"108.80272500000000000000"},{"station_name":"lubuk alung","city_name":" ","station_code":"LA","latitude":null,"longitude":"0.00000000000000000000"},{"station_name":"lubuk linggau","city_name":"Lubuk Linggau","station_code":"LLG","latitude":"-3.25496400000000000000","longitude":"102.85448700000000000000"},{"station_name":"lubukpakam","city_name":"Deli Serdang","station_code":"LBP","latitude":"3.55248500000000000000","longitude":"98.85592500000000000000"},{"station_name":"lubukrukam","city_name":" ","station_code":"LRM","latitude":null,"longitude":"0.00000000000000000000"},{"station_name":"luwung","city_name":"Cirebon","station_code":"LWG","latitude":"-6.77160700000000000000","longitude":"108.59423200000000000000"},{"station_name":"madiun","city_name":"Madiun","station_code":"MN","latitude":"-7.61896600000000000000","longitude":"111.52564500000000000000"},{"station_name":"maguwo","city_name":"Sleman","station_code":"MGW","latitude":"-7.77690400000000000000","longitude":"110.43030000000000000000"},{"station_name":"maja","city_name":" ","station_code":"MJ","latitude":null,"longitude":"0.00000000000000000000"},{"station_name":"malang","city_name":"Malang","station_code":"ML","latitude":"-7.97772000000000000000","longitude":"112.63705600000000000000"},{"station_name":"malang kota lama ","city_name":"Malang","station_code":"MLK","latitude":"-7.99518500000000000000","longitude":"112.63162700000000000000"},{"station_name":"malasan","city_name":" ","station_code":"MLS","latitude":null,"longitude":"0.00000000000000000000"},{"station_name":"manggarai ","city_name":"Jakarta Selatan","station_code":"MRI","latitude":"-6.21042100000000000000","longitude":"106.84994300000000000000"},{"station_name":"mangkang","city_name":" ","station_code":"MKG","latitude":null,"longitude":"0.00000000000000000000"},{"station_name":"manonjaya","city_name":"Tasikmalaya","station_code":"MNJ","latitude":"-7.35314600000000000000","longitude":"108.30269700000000000000"},{"station_name":"maos","city_name":"Cilacap","station_code":"MA","latitude":"-7.61906400000000000000","longitude":"109.13939600000000000000"},{"station_name":"marbau","city_name":"Labuhan Batu","station_code":"MBU","latitude":"2.23858100000000000000","longitude":"99.77639400000000000000"},{"station_name":"martapura","city_name":"Ogan Komering Ulu Timur","station_code":"MP","latitude":"-4.35565400000000000000","longitude":"104.30179600000000000000"},{"station_name":"masaran","city_name":"Sragen","station_code":"MSR","latitude":"-7.47063400000000000000","longitude":"110.92974900000000000000"},{"station_name":"maseng","city_name":" ","station_code":"MSG","latitude":"-6.70254000000000000000","longitude":"106.81458600000000000000"},{"station_name":"maswati","city_name":" ","station_code":"MSI","latitude":null,"longitude":"0.00000000000000000000"},{"station_name":"medan","city_name":"Medan","station_code":"MDN","latitude":"3.59209400000000000000","longitude":"98.67969300000000000000"},{"station_name":"meluwung","city_name":"Cilacap","station_code":"MLW","latitude":"-7.65193800000000000000","longitude":"109.17350300000000000000"},{"station_name":"membang muda","city_name":"Labuhan Batu","station_code":"MBM","latitude":"99.66075900000000000000","longitude":"2.54265000000000000000"},{"station_name":"merak","city_name":" ","station_code":"MER","latitude":"-5.93012800000000000000","longitude":"105.99684100000000000000"},{"station_name":"minggiran","city_name":" ","station_code":"MGN","latitude":null,"longitude":"0.00000000000000000000"},{"station_name":"mojokerto","city_name":"Mojokerto","station_code":"MR","latitude":"-7.47238400000000000000","longitude":"112.43379800000000000000"},{"station_name":"mrawan","city_name":" ","station_code":"MRW","latitude":null,"longitude":"0.00000000000000000000"},{"station_name":"muara enim","city_name":"Muara Enim","station_code":"ME","latitude":"-3.66812700000000000000","longitude":"103.75793000000000000000"},{"station_name":"muarasaling","city_name":" ","station_code":"MSL","latitude":null,"longitude":"0.00000000000000000000"},{"station_name":"nagreg","city_name":"Bandung","station_code":"NG","latitude":"-7.01905600000000000000","longitude":"107.88587100000000000000"},{"station_name":"negararatu","city_name":" ","station_code":"NRR","latitude":null,"longitude":"0.00000000000000000000"},{"station_name":"negeriagung","city_name":" ","station_code":"NGN","latitude":null,"longitude":"0.00000000000000000000"},{"station_name":"ngadiluwih","city_name":" ","station_code":"NDL","latitude":null,"longitude":"0.00000000000000000000"},{"station_name":"nganjuk","city_name":"Nganjuk","station_code":"NJ","latitude":"-7.59941700000000000000","longitude":"111.91135200000000000000"},{"station_name":"ngebruk","city_name":" ","station_code":"NB","latitude":null,"longitude":"0.00000000000000000000"},{"station_name":"ngrombro","city_name":"Grobogan","station_code":"NBO","latitude":"-7.13276700000000000000","longitude":"110.88433900000000000000"},{"station_name":"ngunut","city_name":"Tulungagung","station_code":"NT","latitude":"-8.10327000000000000000","longitude":"112.00852300000000000000"},{"station_name":"notog","city_name":"Banyumas","station_code":"NTG","latitude":"-7.49103700000000000000","longitude":"109.21397200000000000000"},{"station_name":"padalarang","city_name":"Bandung Barat","station_code":"PDL","latitude":"-6.84292500000000000000","longitude":"107.49731500000000000000"},{"station_name":"padang","city_name":" ","station_code":"PD","latitude":null,"longitude":"0.00000000000000000000"},{"station_name":"padanghalaban","city_name":"Labuhan Batu","station_code":"PHA","latitude":"2.26739800000000000000","longitude":"100.07926900000000000000"},{"station_name":"pagergunung","city_name":" ","station_code":"PGG","latitude":null,"longitude":"0.00000000000000000000"},{"station_name":"pakishaji","city_name":" ","station_code":"PSI","latitude":null,"longitude":"0.00000000000000000000"},{"station_name":"paledang","city_name":" ","station_code":"PLG","latitude":null,"longitude":"0.00000000000000000000"},{"station_name":"palmerah","city_name":" ","station_code":"PLM","latitude":null,"longitude":"0.00000000000000000000"},{"station_name":"pamingke","city_name":"Labuhan Batu","station_code":"PME","latitude":"2.23995300000000000000","longitude":"99.77989200000000000000"},{"station_name":"paninjawan","city_name":" ","station_code":"PNW","latitude":null,"longitude":"0.00000000000000000000"},{"station_name":"panunggalan","city_name":" ","station_code":"PNL","latitude":null,"longitude":"0.00000000000000000000"},{"station_name":"papar","city_name":"Kediri","station_code":"PPR","latitude":"-7.70291100000000000000","longitude":"112.10379500000000000000"},{"station_name":"pariaman","city_name":" ","station_code":"PMN","latitude":null,"longitude":"0.00000000000000000000"},{"station_name":"paron","city_name":"Ngawi","station_code":"PA","latitude":"-7.43656000000000000000","longitude":"111.39136800000000000000"},{"station_name":"parung kuda","city_name":" ","station_code":"PRK","latitude":null,"longitude":"0.00000000000000000000"},{"station_name":"parung panjang","city_name":" ","station_code":"PRP","latitude":null,"longitude":"0.00000000000000000000"},{"station_name":"pasar senen","city_name":"Jakarta Pusat","station_code":"PSE","latitude":"-6.17447600000000000000","longitude":"106.84446600000000000000"},{"station_name":"pasuruan","city_name":"Pasuruan","station_code":"PS","latitude":"-7.63839100000000000000","longitude":"112.90726700000000000000"},{"station_name":"patuguran","city_name":"Brebes","station_code":"PAT","latitude":"-7.30642000000000000000","longitude":"109.04345900000000000000"},{"station_name":"pauhkambar","city_name":" ","station_code":"PAK","latitude":null,"longitude":"0.00000000000000000000"},{"station_name":"pegadenbaru","city_name":"Subang","station_code":"PGB","latitude":"-6.45394600000000000000","longitude":"107.81567800000000000000"},{"station_name":"pekalongan","city_name":"Pekalongan","station_code":"PK","latitude":"-6.89002500000000000000","longitude":"109.64916300000000000000"},{"station_name":"pemalang","city_name":"Pemalang","station_code":"PML","latitude":"-6.89070400000000000000","longitude":"109.39060600000000000000"},{"station_name":"perbaungan","city_name":"Serdang Bedagai","station_code":"PBA","latitude":"3.35200600000000000000","longitude":"99.02389500000000000000"},{"station_name":"perlanaan","city_name":" ","station_code":"PRA","latitude":"0.00000000000000000000","longitude":"0.00000000000000000000"},{"station_name":"petarukan","city_name":"Pemalang","station_code":"PTA","latitude":"-6.89703000000000000000","longitude":"109.44620800000000000000"},{"station_name":"peterongan","city_name":"Jombang","station_code":"PTR","latitude":"-7.53914700000000000000","longitude":"112.27842800000000000000"},{"station_name":"plabuan","city_name":"Batang","station_code":"PLB","latitude":"-6.93758800000000000000","longitude":"109.96391800000000000000"},{"station_name":"plered","city_name":"Cirebon","station_code":"PLD","latitude":"-6.70618700000000000000","longitude":"108.51096500000000000000"},{"station_name":"pohgajih","city_name":" ","station_code":"PGJ","latitude":"-8.15702300000000000000","longitude":"112.42014500000000000000"},{"station_name":"pondok ranji","city_name":" ","station_code":"PDJ","latitude":null,"longitude":"0.00000000000000000000"},{"station_name":"porong","city_name":" ","station_code":"PR","latitude":null,"longitude":"0.00000000000000000000"},{"station_name":"prabumulih","city_name":"Prabumulih","station_code":"PBM","latitude":"-3.44085600000000000000","longitude":"104.23553500000000000000"},{"station_name":"prembun","city_name":"Kebumen","station_code":"PRB","latitude":"-7.72329200000000000000","longitude":"109.79652600000000000000"},{"station_name":"probolinggo","city_name":"Probolinggo","station_code":"PB","latitude":"-7.74319400000000000000","longitude":"113.21538300000000000000"},{"station_name":"prupuk","city_name":"Tegal","station_code":"PPK","latitude":"-7.13519500000000000000","longitude":"108.96698400000000000000"},{"station_name":"pucuk","city_name":" ","station_code":"PC","latitude":null,"longitude":"0.00000000000000000000"},{"station_name":"puluraja","city_name":"Simalungun","station_code":"PUR","latitude":"2.97449900000000000000","longitude":"99.08277500000000000000"},{"station_name":"purwakarta","city_name":"Purwakarta","station_code":"PWK","latitude":"-6.55858200000000000000","longitude":"107.45056500000000000000"},{"station_name":"purwoasri","city_name":" ","station_code":"PWA","latitude":null,"longitude":"0.00000000000000000000"},{"station_name":"purwokerto","city_name":"Banyumas","station_code":"PWT","latitude":"-7.43145400000000000000","longitude":"109.24753200000000000000"},{"station_name":"purwosari","city_name":"Surakarta (Solo)","station_code":"PWS","latitude":"-7.56402400000000000000","longitude":"110.80092800000000000000"},{"station_name":"rajapolah","city_name":"Tasikmalaya","station_code":"RJP","latitude":"-7.21950600000000000000","longitude":"108.19095000000000000000"},{"station_name":"rambipuji","city_name":"Jember","station_code":"RBP","latitude":"-8.20268700000000000000","longitude":"113.61602400000000000000"},{"station_name":"rampah","city_name":"Serdang Bedagai","station_code":"RPH","latitude":"3.48934800000000000000","longitude":"99.12783600000000000000"},{"station_name":"rancaekek","city_name":"Bandung","station_code":"RCK","latitude":"-6.96531600000000000000","longitude":"107.75723200000000000000"},{"station_name":"randegan","city_name":"Banyumas","station_code":"RDG","latitude":"109.04874800000000000000","longitude":"-7.53510500000000000000"},{"station_name":"randegan","city_name":" ","station_code":"RDN","latitude":null,"longitude":"0.00000000000000000000"},{"station_name":"randuagung","city_name":" ","station_code":"RDA","latitude":null,"longitude":"0.00000000000000000000"},{"station_name":"randublatung","city_name":"Blora","station_code":"RBG","latitude":"-7.21224200000000000000","longitude":"111.38484500000000000000"},{"station_name":"rangkasbitung","city_name":"Lebak","station_code":"RK","latitude":"-6.35272200000000000000","longitude":"106.25148800000000000000"},{"station_name":"rantau prapat","city_name":"Labuhan Batu","station_code":"RAP","latitude":"2.09931400000000000000","longitude":"99.83104700000000000000"},{"station_name":"rejosari","city_name":"Lampung Selatan","station_code":"RJS","latitude":"0.00000000000000000000","longitude":"0.00000000000000000000"},{"station_name":"rejotangan","city_name":" ","station_code":"RJ","latitude":null,"longitude":"0.00000000000000000000"},{"station_name":"rendeh","city_name":"Bandung Barat","station_code":"RH","latitude":"-6.73670300000000000000","longitude":"107.39867400000000000000"},{"station_name":"rengas","city_name":" ","station_code":"RGS","latitude":"0.00000000000000000000","longitude":"0.00000000000000000000"},{"station_name":"rogojampi","city_name":"Banyuwangi","station_code":"RGP","latitude":"-8.33144400000000000000","longitude":"114.30483700000000000000"},{"station_name":"sadang","city_name":"Purwakarta","station_code":"SAD","latitude":"-7.53114800000000000000","longitude":"109.71352800000000000000"},{"station_name":"salem","city_name":" ","station_code":"SLM","latitude":"0.00000000000000000000","longitude":"0.00000000000000000000"},{"station_name":"saradan","city_name":"Madiun","station_code":"SRD","latitude":"-7.54803800000000000000","longitude":"111.73207300000000000000"},{"station_name":"sasaksaat","city_name":" ","station_code":"SKT","latitude":"0.00000000000000000000","longitude":"0.00000000000000000000"},{"station_name":"saungnaga","city_name":" ","station_code":"SNA","latitude":null,"longitude":"0.00000000000000000000"},{"station_name":"sedadi","city_name":" ","station_code":"SDI","latitude":null,"longitude":"0.00000000000000000000"},{"station_name":"seibejangkar","city_name":"Batu Bara","station_code":"SBJ","latitude":"2.97389900000000000000","longitude":"99.61200700000000000000"},{"station_name":"semarang poncol","city_name":"Semarang","station_code":"SMC","latitude":"-6.97200400000000000000","longitude":"110.41518300000000000000"},{"station_name":"semarang tawang","city_name":"Semarang","station_code":"SMT","latitude":"-6.96525700000000000000","longitude":"110.42729600000000000000"},{"station_name":"sembung","city_name":"Jombang","station_code":"SMB","latitude":"-7.57737100000000000000","longitude":"112.17811300000000000000"},{"station_name":"sempolan","city_name":" ","station_code":"SPL","latitude":"0.00000000000000000000","longitude":"0.00000000000000000000"},{"station_name":"sentolo","city_name":"Kulon Progo","station_code":"STL","latitude":"-7.82699000000000000000","longitude":"110.22445700000000000000"},{"station_name":"sepanjang","city_name":"Sidoarjo","station_code":"SPJ","latitude":"-7.34714400000000000000","longitude":"112.69779500000000000000"},{"station_name":"serang","city_name":"Serang","station_code":"SG","latitude":"-6.11234400000000000000","longitude":"106.15863800000000000000"},{"station_name":"serpong","city_name":" ","station_code":"SRP","latitude":"-6.32009900000000000000","longitude":"106.66558800000000000000"},{"station_name":"siantar","city_name":"Pematang Siantar","station_code":"SIR","latitude":"2.95932700000000000000","longitude":"99.06307300000000000000"},{"station_name":"sidareja","city_name":"Cilacap","station_code":"SDR","latitude":"-7.47847200000000000000","longitude":"108.79352000000000000000"},{"station_name":"sidoarjo","city_name":"Sidoarjo","station_code":"SDA","latitude":"-7.45652000000000000000","longitude":"112.71295700000000000000"},{"station_name":"sikampuh","city_name":"Cilacap","station_code":"SKP","latitude":"-7.63199000000000000000","longitude":"109.20133000000000000000"},{"station_name":"sindanglaut","city_name":"Cirebon","station_code":"SDU","latitude":"-6.83793400000000000000","longitude":"108.61217000000000000000"},{"station_name":"singojuruh","city_name":" ","station_code":"SGJ","latitude":"0.00000000000000000000","longitude":"0.00000000000000000000"},{"station_name":"singosari","city_name":" ","station_code":"SGS","latitude":"-7.89683900000000000000","longitude":"112.66473300000000000000"},{"station_name":"slawi","city_name":" ","station_code":"SLW","latitude":"-6.98192200000000000000","longitude":"109.13714500000000000000"},{"station_name":"solobalapan","city_name":"Surakarta (Solo)","station_code":"SLO","latitude":"-7.55675500000000000000","longitude":"110.82139900000000000000"},{"station_name":"solojebres","city_name":"Surakarta (Solo)","station_code":"SK","latitude":"-7.56461700000000000000","longitude":"110.85717100000000000000"},{"station_name":"songgom","city_name":"Brebes","station_code":"SGG","latitude":"-7.02514700000000000000","longitude":"108.98834500000000000000"},{"station_name":"sragen","city_name":"Sragen","station_code":"SR","latitude":"-7.42910300000000000000","longitude":"111.01709200000000000000"},{"station_name":"sragi","city_name":"Pekalongan","station_code":"SRI","latitude":"-6.92451000000000000000","longitude":"109.56547000000000000000"},{"station_name":"srowot","city_name":"Klaten","station_code":"SWT","latitude":"-7.74165300000000000000","longitude":"110.56765100000000000000"},{"station_name":"sruweng","city_name":"Kebumen","station_code":"SRW","latitude":"-7.65693600000000000000","longitude":"109.60168500000000000000"},{"station_name":"sudimara","city_name":" ","station_code":"SDM","latitude":"-6.29686800000000000000","longitude":"106.71266700000000000000"},{"station_name":"sukabumi","city_name":"Sukabumi","station_code":"SI","latitude":"-6.92714000000000000000","longitude":"106.92279200000000000000"},{"station_name":"sukatani","city_name":" ","station_code":"SUT","latitude":"0.00000000000000000000","longitude":"0.00000000000000000000"},{"station_name":"sukomoro","city_name":" ","station_code":"SKM","latitude":"-7.60254200000000000000","longitude":"111.94258000000000000000"},{"station_name":"sukorejo","city_name":" ","station_code":"SKJ","latitude":"0.00000000000000000000","longitude":"0.00000000000000000000"},{"station_name":"sulusuban","city_name":"Lampung Selatan","station_code":"SLS","latitude":"0.00000000000000000000","longitude":"0.00000000000000000000"},{"station_name":"sumbergempol","city_name":" ","station_code":"SBL","latitude":"-8.08193800000000000000","longitude":"111.94481300000000000000"},{"station_name":"sumberlawang","city_name":"Sragen","station_code":"SUM","latitude":"-7.43592200000000000000","longitude":"110.99410100000000000000"},{"station_name":"sumberpucung","city_name":"Malang","station_code":"SBP","latitude":"-8.15838200000000000000","longitude":"112.46356500000000000000"},{"station_name":"sumberrejo","city_name":"Bojonegoro","station_code":"SRJ","latitude":"-7.17671100000000000000","longitude":"112.00231100000000000000"},{"station_name":"sumberwadung","city_name":"Banyuwangi","station_code":"SWD","latitude":"-8.30203700000000000000","longitude":"114.10606400000000000000"},{"station_name":"sumlaran","city_name":" ","station_code":"SLR","latitude":"0.00000000000000000000","longitude":"0.00000000000000000000"},{"station_name":"sumobito","city_name":"Jombang","station_code":"SBO","latitude":"-7.52040600000000000000","longitude":"112.34389200000000000000"},{"station_name":"sumpiuh","city_name":"Banyumas","station_code":"SPH","latitude":"-7.61342300000000000000","longitude":"109.35961200000000000000"},{"station_name":"gubeng","city_name":"Surabaya","station_code":"SGU","latitude":"-7.26541100000000000000","longitude":"112.75188900000000000000"},{"station_name":"surabaya gubeng","city_name":" ","station_code":"SGUX","latitude":"0.00000000000000000000","longitude":"0.00000000000000000000"},{"station_name":"surabaya kota","city_name":"Surabaya","station_code":"SB","latitude":"-7.24251200000000000000","longitude":"112.74250700000000000000"},{"station_name":"surabaya pasar turi","city_name":"Surabaya","station_code":"SBI","latitude":"-7.24883200000000000000","longitude":"112.73138100000000000000"},{"station_name":"surodadi","city_name":" ","station_code":"SD","latitude":null,"longitude":"0.00000000000000000000"},{"station_name":"susuhan","city_name":" ","station_code":"SS","latitude":"0.00000000000000000000","longitude":"0.00000000000000000000"},{"station_name":"tabing","city_name":" ","station_code":"TAB","latitude":"0.00000000000000000000","longitude":"0.00000000000000000000"},{"station_name":"talun","city_name":"Blitar","station_code":"TAL","latitude":"-8.09012000000000000000","longitude":"112.27230900000000000000"},{"station_name":"tambak","city_name":"Banyumas","station_code":"TBK","latitude":"-7.62063300000000000000","longitude":"109.40983600000000000000"},{"station_name":"tambun","city_name":" ","station_code":"TB","latitude":"-6.23563500000000000000","longitude":"106.99893700000000000000"},{"station_name":"tanah abang","city_name":"Jakarta Pusat","station_code":"THB","latitude":"-6.18571800000000000000","longitude":"106.81079900000000000000"},{"station_name":"tandes","city_name":" ","station_code":"TES","latitude":"0.00000000000000000000","longitude":"0.00000000000000000000"},{"station_name":"tangerang","city_name":"Tangerang","station_code":"TNG","latitude":"-6.17700400000000000000","longitude":"106.63282900000000000000"},{"station_name":"tanggul","city_name":"Jember","station_code":"TGL","latitude":"-8.18572800000000000000","longitude":"113.45062300000000000000"},{"station_name":"tanggulangin","city_name":" ","station_code":"TGA","latitude":"0.00000000000000000000","longitude":"0.00000000000000000000"},{"station_name":"tanjung","city_name":"Brebes","station_code":"TGN","latitude":"-6.87491800000000000000","longitude":"108.85537100000000000000"},{"station_name":"tanjung priuk","city_name":"Jakarta Utara","station_code":"TPK","latitude":"-6.11086700000000000000","longitude":"106.88115800000000000000"},{"station_name":"tanjungbalai","city_name":"Tanjung Balai","station_code":"TNB","latitude":"2.96488800000000000000","longitude":"99.80898900000000000000"},{"station_name":"tanjungkarang","city_name":"Bandar Lampung","station_code":"TNK","latitude":"-5.41299600000000000000","longitude":"105.23865900000000000000"},{"station_name":"tanjungrasa","city_name":"Subang","station_code":"TJS","latitude":"-6.40064400000000000000","longitude":"107.55988600000000000000"},{"station_name":"tarik","city_name":"Sidoarjo","station_code":"TRK","latitude":"-7.45949600000000000000","longitude":"112.51802400000000000000"},{"station_name":"tasikmalaya","city_name":"Tasikmalaya","station_code":"TSM","latitude":"-7.32270700000000000000","longitude":"108.22386100000000000000"},{"station_name":"tebing tinggi","city_name":"Tebing Tinggi","station_code":"TBI","latitude":"3.31953100000000000000","longitude":"99.15221200000000000000"},{"station_name":"tebing tinggi","city_name":"Tebing Tinggi","station_code":"TI","latitude":"3.32109500000000000000","longitude":"99.16478600000000000000"},{"station_name":"tegal","city_name":"Tegal","station_code":"TG","latitude":"-6.87223400000000000000","longitude":"109.13642400000000000000"},{"station_name":"tegineneng","city_name":" ","station_code":"TGI","latitude":"0.00000000000000000000","longitude":"0.00000000000000000000"},{"station_name":"telawa","city_name":"Boyolali","station_code":"TW","latitude":"-7.19521100000000000000","longitude":"110.74600000000000000000"},{"station_name":"temuguruh","city_name":"Banyuwangi","station_code":"TGR","latitude":"-8.33734600000000000000","longitude":"114.15195100000000000000"},{"station_name":"tenjo","city_name":" ","station_code":"TEJ","latitude":"0.00000000000000000000","longitude":"0.00000000000000000000"},{"station_name":"terisi","city_name":"Indramayu","station_code":"TIS","latitude":"-6.47960000000000000000","longitude":"108.16067900000000000000"},{"station_name":"testes","city_name":" ","station_code":"124","latitude":"0.00000000000000000000","longitude":"0.00000000000000000000"},{"station_name":"tigaraksa","city_name":" ","station_code":"TGS","latitude":null,"longitude":"0.00000000000000000000"},{"station_name":"tigaraksa","city_name":" ","station_code":"TIG","latitude":"0.00000000000000000000","longitude":"0.00000000000000000000"},{"station_name":"tonjong baru","city_name":" ","station_code":"TOJB","latitude":"0.00000000000000000000","longitude":"0.00000000000000000000"},{"station_name":"tugu yogyakarta","city_name":"Yogyakarta","station_code":"YK","latitude":"-7.78910700000000000000","longitude":"110.36408200000000000000"},{"station_name":"tulangan","city_name":" ","station_code":"TLN","latitude":null,"longitude":"0.00000000000000000000"},{"station_name":"tulungagung","city_name":"Tulungagung","station_code":"TA","latitude":"-8.06437100000000000000","longitude":"111.90457100000000000000"},{"station_name":"tulungbuyut","city_name":" ","station_code":"TLY","latitude":null,"longitude":"0.00000000000000000000"},{"station_name":"ujanmas","city_name":" ","station_code":"UJM","latitude":null,"longitude":"0.00000000000000000000"},{"station_name":"ujungnegoro","city_name":" ","station_code":"UJN","latitude":"-6.90896000000000000000","longitude":"109.79214900000000000000"},{"station_name":"wadu","city_name":" ","station_code":"WDU","latitude":"0.00000000000000000000","longitude":"0.00000000000000000000"},{"station_name":"walantaka","city_name":" ","station_code":"WLT","latitude":"-6.11192400000000000000","longitude":"106.15831900000000000000"},{"station_name":"walikukun","city_name":"Ngawi","station_code":"WK","latitude":"-7.37802800000000000000","longitude":"111.24382500000000000000"},{"station_name":"waru","city_name":" ","station_code":"WR","latitude":"-7.35260700000000000000","longitude":"112.72926800000000000000"},{"station_name":"waruduwur","city_name":"Cirebon","station_code":"WDW","latitude":"-6.78196200000000000000","longitude":"108.60253600000000000000"},{"station_name":"warung bandrek","city_name":"Garut","station_code":"WB","latitude":"-7.06765300000000000000","longitude":"107.99609900000000000000"},{"station_name":"wates","city_name":"Kulon Progo","station_code":"WT","latitude":"-7.86018300000000000000","longitude":"110.15798100000000000000"},{"station_name":"waytuba","city_name":" ","station_code":"WAY","latitude":null,"longitude":"0.00000000000000000000"},{"station_name":"weleri","city_name":"Kendal","station_code":"WLR","latitude":"-6.96674800000000000000","longitude":"110.06900100000000000000"},{"station_name":"wilangan","city_name":"Nganjuk","station_code":"WIL","latitude":"-7.56254600000000000000","longitude":"111.82913300000000000000"},{"station_name":"wlingi","city_name":"Blitar","station_code":"WG","latitude":"-8.08117600000000000000","longitude":"112.32428300000000000000"},{"station_name":"wonokerto","city_name":" ","station_code":"WN","latitude":null,"longitude":"0.00000000000000000000"},{"station_name":"wonokromo","city_name":"Surabaya","station_code":"WO","latitude":"-7.30197800000000000000","longitude":"112.73917000000000000000"},{"station_name":"wonokromox","city_name":" ","station_code":"WOX","latitude":"7.30199200000000000000","longitude":"112.73918500000000000000"},{"station_name":"wonosari","city_name":"Kebumen","station_code":"WNS","latitude":"-7.69445900000000000000","longitude":"109.69679100000000000000"}]},"login_status":"false","token":"dd95bcfdb84e83f323dd9165226c043626b4158f"}